header: 
  seq: 3543
  stamp: 
    secs: 1723803126
    nsecs: 328999790
  frame_id: "map"
pose: 
  position: 
    x: -0.538320660591
    y: 0.2443138659
    z: -1.17697644234
  orientation: 
    x: -0.0137375084398
    y: -0.0303214477577
    z: 0.687453181524
    w: -0.725465376781
---
header: 
  seq: 3544
  stamp: 
    secs: 1723803126
    nsecs: 365526640
  frame_id: "map"
pose: 
  position: 
    x: -0.538105130196
    y: 0.244268268347
    z: -1.18322587013
  orientation: 
    x: -0.0137288755798
    y: -0.030359633461
    z: 0.68745678508
    w: -0.725460593114
---
header: 
  seq: 3545
  stamp: 
    secs: 1723803126
    nsecs: 398496963
  frame_id: "map"
pose: 
  position: 
    x: -0.538031458855
    y: 0.244355022907
    z: -1.1888115406
  orientation: 
    x: -0.0137244290873
    y: -0.0303560720523
    z: 0.687454057389
    w: -0.725463405099
---
header: 
  seq: 3546
  stamp: 
    secs: 1723803126
    nsecs: 429500817
  frame_id: "map"
pose: 
  position: 
    x: -0.537950277328
    y: 0.244436636567
    z: -1.19636142254
  orientation: 
    x: -0.0137221834505
    y: -0.0303145850653
    z: 0.687453670165
    w: -0.725465478197
---
header: 
  seq: 3547
  stamp: 
    secs: 1723803126
    nsecs: 463737669
  frame_id: "map"
pose: 
  position: 
    x: -0.537861764431
    y: 0.24444796145
    z: -1.20206534863
  orientation: 
    x: -0.0137348913839
    y: -0.0302800714062
    z: 0.687454057389
    w: -0.725466355378
---
header: 
  seq: 3548
  stamp: 
    secs: 1723803126
    nsecs: 498606426
  frame_id: "map"
pose: 
  position: 
    x: -0.537766516209
    y: 0.244375824928
    z: -1.20786309242
  orientation: 
    x: -0.0137659147571
    y: -0.0302390855717
    z: 0.687449415967
    w: -0.725471924031
---
header: 
  seq: 3549
  stamp: 
    secs: 1723803126
    nsecs: 530339241
  frame_id: "map"
pose: 
  position: 
    x: -0.53762024641
    y: 0.244182541966
    z: -1.21569395065
  orientation: 
    x: -0.0137720978315
    y: -0.0302509281776
    z: 0.687433887487
    w: -0.725486019517
---
header: 
  seq: 3550
  stamp: 
    secs: 1723803126
    nsecs: 565871773
  frame_id: "map"
pose: 
  position: 
    x: -0.537482261658
    y: 0.243996024132
    z: -1.22160255909
  orientation: 
    x: -0.0137457422218
    y: -0.0303095366631
    z: 0.687432338591
    w: -0.725485461072
---
header: 
  seq: 3551
  stamp: 
    secs: 1723803126
    nsecs: 599533163
  frame_id: "map"
pose: 
  position: 
    x: -0.537270665169
    y: 0.243889436126
    z: -1.22740900517
  orientation: 
    x: -0.0137366523319
    y: -0.0303401319824
    z: 0.68742932114
    w: -0.725487298411
---
header: 
  seq: 3552
  stamp: 
    secs: 1723803126
    nsecs: 632906102
  frame_id: "map"
pose: 
  position: 
    x: -0.536971926689
    y: 0.243787661195
    z: -1.23508298397
  orientation: 
    x: -0.0137328044563
    y: -0.0303656960217
    z: 0.687411230922
    w: -0.725503449873
---
header: 
  seq: 3553
  stamp: 
    secs: 1723803126
    nsecs: 665208709
  frame_id: "map"
pose: 
  position: 
    x: -0.536789238453
    y: 0.243698492646
    z: -1.24115014076
  orientation: 
    x: -0.013739649368
    y: -0.0303638455116
    z: 0.687407643172
    w: -0.725506784743
---
header: 
  seq: 3554
  stamp: 
    secs: 1723803126
    nsecs: 697767672
  frame_id: "map"
pose: 
  position: 
    x: -0.536608576775
    y: 0.243612155318
    z: -1.24715602398
  orientation: 
    x: -0.0137586352061
    y: -0.0303370783116
    z: 0.687399016239
    w: -0.725515664557
---
header: 
  seq: 3555
  stamp: 
    secs: 1723803126
    nsecs: 730593241
  frame_id: "map"
pose: 
  position: 
    x: -0.536386966705
    y: 0.243503004313
    z: -1.25488066673
  orientation: 
    x: -0.0137522427146
    y: -0.0302791468097
    z: 0.687376159476
    w: -0.725539954313
---
header: 
  seq: 3556
  stamp: 
    secs: 1723803126
    nsecs: 763923128
  frame_id: "map"
pose: 
  position: 
    x: -0.536209881306
    y: 0.243373975158
    z: -1.26113069057
  orientation: 
    x: -0.0137439364927
    y: -0.0302623045339
    z: 0.687363408737
    w: -0.725552789345
---
header: 
  seq: 3557
  stamp: 
    secs: 1723803126
    nsecs: 797392868
  frame_id: "map"
pose: 
  position: 
    x: -0.535977721214
    y: 0.243200689554
    z: -1.26739776134
  orientation: 
    x: -0.0137462868381
    y: -0.0302643796077
    z: 0.687352237188
    w: -0.725563202251
---
header: 
  seq: 3558
  stamp: 
    secs: 1723803126
    nsecs: 829743300
  frame_id: "map"
pose: 
  position: 
    x: -0.535698831081
    y: 0.242977440357
    z: -1.27407729626
  orientation: 
    x: -0.0137318390301
    y: -0.0302941372584
    z: 0.687330119312
    w: -0.725583297078
---
header: 
  seq: 3559
  stamp: 
    secs: 1723803126
    nsecs: 866074048
  frame_id: "map"
pose: 
  position: 
    x: -0.535314321518
    y: 0.242605403066
    z: -1.28294658661
  orientation: 
    x: -0.0137136032741
    y: -0.0303745422501
    z: 0.687307528601
    w: -0.72560158881
---
header: 
  seq: 3560
  stamp: 
    secs: 1723803126
    nsecs: 898390846
  frame_id: "map"
pose: 
  position: 
    x: -0.534958302975
    y: 0.242423087358
    z: -1.28917658329
  orientation: 
    x: -0.0137032127589
    y: -0.0304096202818
    z: 0.687309666237
    w: -0.725598355357
---
header: 
  seq: 3561
  stamp: 
    secs: 1723803126
    nsecs: 931498331
  frame_id: "map"
pose: 
  position: 
    x: -0.534429132938
    y: 0.242255106568
    z: -1.29779696465
  orientation: 
    x: -0.013697650692
    y: -0.0304300917964
    z: 0.687316088363
    w: -0.725591511762
---
header: 
  seq: 3562
  stamp: 
    secs: 1723803126
    nsecs: 965656417
  frame_id: "map"
pose: 
  position: 
    x: -0.534041583538
    y: 0.242113038898
    z: -1.30410265923
  orientation: 
    x: -0.0137012061738
    y: -0.0304263756297
    z: 0.687312056754
    w: -0.725595459078
---
header: 
  seq: 3563
  stamp: 
    secs: 1723803126
    nsecs: 998291456
  frame_id: "map"
pose: 
  position: 
    x: -0.53386682272
    y: 0.24201503396
    z: -1.3100758791
  orientation: 
    x: -0.0137132147329
    y: -0.030414727953
    z: 0.687312296464
    w: -0.725595472249
---
header: 
  seq: 3564
  stamp: 
    secs: 1723803127
    nsecs:  31666612
  frame_id: "map"
pose: 
  position: 
    x: -0.533779740334
    y: 0.241937249899
    z: -1.31568551064
  orientation: 
    x: -0.0137081426231
    y: -0.0304023038523
    z: 0.687306904301
    w: -0.725601117292
---
header: 
  seq: 3565
  stamp: 
    secs: 1723803127
    nsecs:  66978566
  frame_id: "map"
pose: 
  position: 
    x: -0.533592045307
    y: 0.241818264127
    z: -1.32309985161
  orientation: 
    x: -0.0137007109483
    y: -0.0303473660939
    z: 0.687308337294
    w: -0.725602297404
---
header: 
  seq: 3566
  stamp: 
    secs: 1723803127
    nsecs:  97764007
  frame_id: "map"
pose: 
  position: 
    x: -0.533502399921
    y: 0.241757303476
    z: -1.328748703
  orientation: 
    x: -0.0137070882933
    y: -0.0303275834168
    z: 0.687310182536
    w: -0.725601210806
---
header: 
  seq: 3567
  stamp: 
    secs: 1723803127
    nsecs: 129802716
  frame_id: "map"
pose: 
  position: 
    x: -0.533430337906
    y: 0.241675615311
    z: -1.33424091339
  orientation: 
    x: -0.0137112871731
    y: -0.0303482248359
    z: 0.687304886521
    w: -0.725605326709
---
header: 
  seq: 3568
  stamp: 
    secs: 1723803127
    nsecs: 165184115
  frame_id: "map"
pose: 
  position: 
    x: -0.533247351646
    y: 0.241523727775
    z: -1.34173440933
  orientation: 
    x: -0.0136987702176
    y: -0.0303744131753
    z: 0.68730142126
    w: -0.725607696152
---
header: 
  seq: 3569
  stamp: 
    secs: 1723803127
    nsecs: 198356134
  frame_id: "map"
pose: 
  position: 
    x: -0.533145010471
    y: 0.241458043456
    z: -1.34768426418
  orientation: 
    x: -0.0136536276502
    y: -0.0304357348643
    z: 0.687298963572
    w: -0.725608299379
---
header: 
  seq: 3570
  stamp: 
    secs: 1723803127
    nsecs: 231392723
  frame_id: "map"
pose: 
  position: 
    x: -0.53309315443
    y: 0.241384699941
    z: -1.35340929031
  orientation: 
    x: -0.0136124580817
    y: -0.030479630807
    z: 0.687283262553
    w: -0.725622061642
---
header: 
  seq: 3571
  stamp: 
    secs: 1723803127
    nsecs: 265055659
  frame_id: "map"
pose: 
  position: 
    x: -0.533019542694
    y: 0.241245940328
    z: -1.3613345623
  orientation: 
    x: -0.0136159845875
    y: -0.0304902287638
    z: 0.687275033381
    w: -0.725629363583
---
header: 
  seq: 3572
  stamp: 
    secs: 1723803127
    nsecs: 298510228
  frame_id: "map"
pose: 
  position: 
    x: -0.533038377762
    y: 0.241125255823
    z: -1.36696994305
  orientation: 
    x: -0.0136593727924
    y: -0.0304547509955
    z: 0.687260199008
    w: -0.725644113663
---
header: 
  seq: 3573
  stamp: 
    secs: 1723803127
    nsecs: 331514018
  frame_id: "map"
pose: 
  position: 
    x: -0.533028304577
    y: 0.240973874927
    z: -1.37255549431
  orientation: 
    x: -0.0137097422277
    y: -0.030428895221
    z: 0.687232237208
    w: -0.725670726764
---
header: 
  seq: 3574
  stamp: 
    secs: 1723803127
    nsecs: 364495385
  frame_id: "map"
pose: 
  position: 
    x: -0.532945632935
    y: 0.240744754672
    z: -1.38112318516
  orientation: 
    x: -0.0137187188479
    y: -0.0304362663097
    z: 0.687224649458
    w: -0.725677471577
---
header: 
  seq: 3575
  stamp: 
    secs: 1723803127
    nsecs: 399663837
  frame_id: "map"
pose: 
  position: 
    x: -0.532924592495
    y: 0.240697458386
    z: -1.38701736927
  orientation: 
    x: -0.0136834551066
    y: -0.0304833179977
    z: 0.687213193418
    w: -0.725687073156
---
header: 
  seq: 3576
  stamp: 
    secs: 1723803127
    nsecs: 433634116
  frame_id: "map"
pose: 
  position: 
    x: -0.532912731171
    y: 0.240666806698
    z: -1.39497673512
  orientation: 
    x: -0.0136339812918
    y: -0.0305322017565
    z: 0.687199175639
    w: -0.725699067885
---
header: 
  seq: 3577
  stamp: 
    secs: 1723803127
    nsecs: 464784204
  frame_id: "map"
pose: 
  position: 
    x: -0.532885432243
    y: 0.240615233779
    z: -1.40157330036
  orientation: 
    x: -0.0136330995007
    y: -0.0305520074826
    z: 0.68719274166
    w: -0.725704406047
---
header: 
  seq: 3578
  stamp: 
    secs: 1723803127
    nsecs: 499561166
  frame_id: "map"
pose: 
  position: 
    x: -0.532998740673
    y: 0.240733832121
    z: -1.4075922966
  orientation: 
    x: -0.0136441847805
    y: -0.0305420575337
    z: 0.687187682721
    w: -0.725709464986
---
header: 
  seq: 3579
  stamp: 
    secs: 1723803127
    nsecs: 532678828
  frame_id: "map"
pose: 
  position: 
    x: -0.533122301102
    y: 0.240847885609
    z: -1.41381561756
  orientation: 
    x: -0.0136632483269
    y: -0.0304819403226
    z: 0.687166460465
    w: -0.725731783059
---
header: 
  seq: 3580
  stamp: 
    secs: 1723803127
    nsecs: 566424693
  frame_id: "map"
pose: 
  position: 
    x: -0.533269822598
    y: 0.240987211466
    z: -1.422265172
  orientation: 
    x: -0.013666491
    y: -0.03043381389
    z: 0.68716016478
    w: -0.725739596031
---
header: 
  seq: 3581
  stamp: 
    secs: 1723803127
    nsecs: 598687207
  frame_id: "map"
pose: 
  position: 
    x: -0.533267319202
    y: 0.241113573313
    z: -1.42859554291
  orientation: 
    x: -0.0136757264282
    y: -0.0303316683684
    z: 0.687154992571
    w: -0.72574864575
---
header: 
  seq: 3582
  stamp: 
    secs: 1723803127
    nsecs: 631931009
  frame_id: "map"
pose: 
  position: 
    x: -0.533225059509
    y: 0.241183206439
    z: -1.43552422523
  orientation: 
    x: -0.0136965608008
    y: -0.0302544388783
    z: 0.687138121978
    w: -0.725767455098
---
header: 
  seq: 3583
  stamp: 
    secs: 1723803127
    nsecs: 664870799
  frame_id: "map"
pose: 
  position: 
    x: -0.533092260361
    y: 0.241181433201
    z: -1.44445753098
  orientation: 
    x: -0.0137007399243
    y: -0.0302343624905
    z: 0.687132141077
    w: -0.725773857468
---
header: 
  seq: 3584
  stamp: 
    secs: 1723803127
    nsecs: 697970458
  frame_id: "map"
pose: 
  position: 
    x: -0.532991230488
    y: 0.241266608238
    z: -1.45124936104
  orientation: 
    x: -0.0136896645227
    y: -0.030239563675
    z: 0.68713955102
    w: -0.7257667847
---
header: 
  seq: 3585
  stamp: 
    secs: 1723803127
    nsecs: 730441754
  frame_id: "map"
pose: 
  position: 
    x: -0.532878577709
    y: 0.241366818547
    z: -1.45798587799
  orientation: 
    x: -0.0136739002843
    y: -0.0302739831622
    z: 0.687141314602
    w: -0.725764093887
---
header: 
  seq: 3586
  stamp: 
    secs: 1723803127
    nsecs: 765957493
  frame_id: "map"
pose: 
  position: 
    x: -0.532706141472
    y: 0.24143473804
    z: -1.46684920788
  orientation: 
    x: -0.0136683494126
    y: -0.0302939403536
    z: 0.687147039988
    w: -0.725757862739
---
header: 
  seq: 3587
  stamp: 
    secs: 1723803127
    nsecs: 799910187
  frame_id: "map"
pose: 
  position: 
    x: -0.532723128796
    y: 0.24154406786
    z: -1.4729783535
  orientation: 
    x: -0.013666816321
    y: -0.0303156354438
    z: 0.687306797617
    w: -0.725605607249
---
header: 
  seq: 3588
  stamp: 
    secs: 1723803127
    nsecs: 830697453
  frame_id: "map"
pose: 
  position: 
    x: -0.53280287981
    y: 0.241683781147
    z: -1.47884714603
  orientation: 
    x: -0.0136796921832
    y: -0.0302862880664
    z: 0.687461965191
    w: -0.725459627688
---
header: 
  seq: 3589
  stamp: 
    secs: 1723803127
    nsecs: 866112197
  frame_id: "map"
pose: 
  position: 
    x: -0.532888650894
    y: 0.241846203804
    z: -1.48706889153
  orientation: 
    x: -0.0136897856949
    y: -0.030253590673
    z: 0.687567286214
    w: -0.72536105016
---
header: 
  seq: 3590
  stamp: 
    secs: 1723803127
    nsecs: 898970626
  frame_id: "map"
pose: 
  position: 
    x: -0.532938957214
    y: 0.241961300373
    z: -1.49344599247
  orientation: 
    x: -0.0137100820366
    y: -0.0301894668772
    z: 0.687766028361
    w: -0.725174867774
---
header: 
  seq: 3591
  stamp: 
    secs: 1723803127
    nsecs: 930668263
  frame_id: "map"
pose: 
  position: 
    x: -0.532962083817
    y: 0.242049708962
    z: -1.49919879436
  orientation: 
    x: -0.0137060905984
    y: -0.0301420365261
    z: 0.687921310522
    w: -0.725029700857
---
header: 
  seq: 3592
  stamp: 
    secs: 1723803127
    nsecs: 966698974
  frame_id: "map"
pose: 
  position: 
    x: -0.532918035984
    y: 0.242075383663
    z: -1.50726759434
  orientation: 
    x: -0.0137058923765
    y: -0.0301431461736
    z: 0.688042648665
    w: -0.724914516154
---
header: 
  seq: 3593
  stamp: 
    secs: 1723803127
    nsecs: 998332804
  frame_id: "map"
pose: 
  position: 
    x: -0.533061087132
    y: 0.242192521691
    z: -1.51339328289
  orientation: 
    x: -0.0137058653762
    y: -0.0301564441628
    z: 0.688086757976
    w: -0.724872008423
---
header: 
  seq: 3594
  stamp: 
    secs: 1723803128
    nsecs:  32163883
  frame_id: "map"
pose: 
  position: 
    x: -0.533155620098
    y: 0.24226129055
    z: -1.51954209805
  orientation: 
    x: -0.0137043131868
    y: -0.0301960760299
    z: 0.688139731296
    w: -0.724820130921
---
header: 
  seq: 3595
  stamp: 
    secs: 1723803128
    nsecs:  66293734
  frame_id: "map"
pose: 
  position: 
    x: -0.533235251904
    y: 0.242313042283
    z: -1.52856135368
  orientation: 
    x: -0.0136957527667
    y: -0.0302186292036
    z: 0.688156165933
    w: -0.724803780578
---
header: 
  seq: 3596
  stamp: 
    secs: 1723803128
    nsecs: 100907890
  frame_id: "map"
pose: 
  position: 
    x: -0.53328359127
    y: 0.242324456573
    z: -1.53508341312
  orientation: 
    x: -0.0136736500374
    y: -0.0302547352234
    z: 0.688170925232
    w: -0.724788684104
---
header: 
  seq: 3597
  stamp: 
    secs: 1723803128
    nsecs: 133366694
  frame_id: "map"
pose: 
  position: 
    x: -0.533276736736
    y: 0.242375552654
    z: -1.54131114483
  orientation: 
    x: -0.0136710369328
    y: -0.0302838033779
    z: 0.688161440874
    w: -0.724796482588
---
header: 
  seq: 3598
  stamp: 
    secs: 1723803128
    nsecs: 166449649
  frame_id: "map"
pose: 
  position: 
    x: -0.533251106739
    y: 0.242434263229
    z: -1.54990804195
  orientation: 
    x: -0.0136679147733
    y: -0.0302746107552
    z: 0.68815091865
    w: -0.724806836225
---
header: 
  seq: 3599
  stamp: 
    secs: 1723803128
    nsecs: 199308037
  frame_id: "map"
pose: 
  position: 
    x: -0.533229708672
    y: 0.242450267076
    z: -1.5563762188
  orientation: 
    x: -0.0136696533308
    y: -0.0302476183329
    z: 0.688132917995
    w: -0.724825005468
---
header: 
  seq: 3600
  stamp: 
    secs: 1723803128
    nsecs: 232337084
  frame_id: "map"
pose: 
  position: 
    x: -0.533185660839
    y: 0.242444947362
    z: -1.56298995018
  orientation: 
    x: -0.0136829908327
    y: -0.0302070012832
    z: 0.688102680265
    w: -0.724855158903
---
header: 
  seq: 3601
  stamp: 
    secs: 1723803128
    nsecs: 266250311
  frame_id: "map"
pose: 
  position: 
    x: -0.533071696758
    y: 0.242390960455
    z: -1.57177710533
  orientation: 
    x: -0.013678608219
    y: -0.0301928735279
    z: 0.688091890672
    w: -0.724866117084
---
header: 
  seq: 3602
  stamp: 
    secs: 1723803128
    nsecs: 298376634
  frame_id: "map"
pose: 
  position: 
    x: -0.533007740974
    y: 0.242319136858
    z: -1.57815074921
  orientation: 
    x: -0.0136653905722
    y: -0.0301897276608
    z: 0.688064144875
    w: -0.724892851357
---
header: 
  seq: 3603
  stamp: 
    secs: 1723803128
    nsecs: 331294215
  frame_id: "map"
pose: 
  position: 
    x: -0.532928466797
    y: 0.242209494114
    z: -1.58462750912
  orientation: 
    x: -0.0136593227431
    y: -0.0302342808309
    z: 0.688048803422
    w: -0.724905579705
---
header: 
  seq: 3604
  stamp: 
    secs: 1723803128
    nsecs: 367037073
  frame_id: "map"
pose: 
  position: 
    x: -0.532767653465
    y: 0.242029085755
    z: -1.59292542934
  orientation: 
    x: -0.0136557784565
    y: -0.0302772692993
    z: 0.688032438591
    w: -0.724919415725
---
header: 
  seq: 3605
  stamp: 
    secs: 1723803128
    nsecs: 398461857
  frame_id: "map"
pose: 
  position: 
    x: -0.532612085342
    y: 0.241947427392
    z: -1.5988214016
  orientation: 
    x: -0.0136516724315
    y: -0.0302908056817
    z: 0.68801471189
    w: -0.724935878021
---
header: 
  seq: 3606
  stamp: 
    secs: 1723803128
    nsecs: 431096029
  frame_id: "map"
pose: 
  position: 
    x: -0.532448351383
    y: 0.241878956556
    z: -1.60479533672
  orientation: 
    x: -0.0136594979159
    y: -0.0302948102909
    z: 0.687986979263
    w: -0.724961756186
---
header: 
  seq: 3607
  stamp: 
    secs: 1723803128
    nsecs: 467203718
  frame_id: "map"
pose: 
  position: 
    x: -0.532196700573
    y: 0.24175620079
    z: -1.61292541027
  orientation: 
    x: -0.0136916651809
    y: -0.0302767253416
    z: 0.687957990134
    w: -0.724989396616
---
header: 
  seq: 3608
  stamp: 
    secs: 1723803128
    nsecs: 500694490
  frame_id: "map"
pose: 
  position: 
    x: -0.532103180885
    y: 0.241797193885
    z: -1.61869966984
  orientation: 
    x: -0.0136958416702
    y: -0.0302685396333
    z: 0.687944164651
    w: -0.725002800631
---
header: 
  seq: 3609
  stamp: 
    secs: 1723803128
    nsecs: 533772897
  frame_id: "map"
pose: 
  position: 
    x: -0.53198236227
    y: 0.241779386997
    z: -1.62458610535
  orientation: 
    x: -0.0136802466777
    y: -0.0302911784179
    z: 0.687915670747
    w: -0.725029271486
---
header: 
  seq: 3610
  stamp: 
    secs: 1723803128
    nsecs: 567071452
  frame_id: "map"
pose: 
  position: 
    x: -0.531769514084
    y: 0.241688802838
    z: -1.63307666779
  orientation: 
    x: -0.0136766240244
    y: -0.0303269854584
    z: 0.687906001997
    w: -0.725036917188
---
header: 
  seq: 3611
  stamp: 
    secs: 1723803128
    nsecs: 599774298
  frame_id: "map"
pose: 
  position: 
    x: -0.531615614891
    y: 0.241635158658
    z: -1.63906311989
  orientation: 
    x: -0.0136673635715
    y: -0.0303849992783
    z: 0.68789439054
    w: -0.725045662659
---
header: 
  seq: 3612
  stamp: 
    secs: 1723803128
    nsecs: 632791879
  frame_id: "map"
pose: 
  position: 
    x: -0.531482636929
    y: 0.24157859385
    z: -1.64464116096
  orientation: 
    x: -0.0136477547502
    y: -0.0304253469832
    z: 0.68787195788
    w: -0.725065735095
---
header: 
  seq: 3613
  stamp: 
    secs: 1723803128
    nsecs: 666157154
  frame_id: "map"
pose: 
  position: 
    x: -0.531383693218
    y: 0.241523936391
    z: -1.65064907074
  orientation: 
    x: -0.0136394900167
    y: -0.0304331401989
    z: 0.687866808062
    w: -0.725070463445
---
header: 
  seq: 3614
  stamp: 
    secs: 1723803128
    nsecs: 701015417
  frame_id: "map"
pose: 
  position: 
    x: -0.531266450882
    y: 0.24147002399
    z: -1.65875351429
  orientation: 
    x: -0.0136469513259
    y: -0.0303813983569
    z: 0.687842943726
    w: -0.725095170718
---
header: 
  seq: 3615
  stamp: 
    secs: 1723803128
    nsecs: 733885496
  frame_id: "map"
pose: 
  position: 
    x: -0.531125068665
    y: 0.241409555078
    z: -1.66442871094
  orientation: 
    x: -0.013686983588
    y: -0.0302846891203
    z: 0.68781750942
    w: -0.725122543779
---
header: 
  seq: 3616
  stamp: 
    secs: 1723803128
    nsecs: 768583797
  frame_id: "map"
pose: 
  position: 
    x: -0.530900001526
    y: 0.241260245442
    z: -1.67329967022
  orientation: 
    x: -0.0137154122959
    y: -0.0302290862319
    z: 0.687804235797
    w: -0.72513691322
---
header: 
  seq: 3617
  stamp: 
    secs: 1723803128
    nsecs: 800903939
  frame_id: "map"
pose: 
  position: 
    x: -0.530654013157
    y: 0.241073206067
    z: -1.6797286272
  orientation: 
    x: -0.0137489730411
    y: -0.0301771336556
    z: 0.687788189701
    w: -0.725153717959
---
header: 
  seq: 3618
  stamp: 
    secs: 1723803128
    nsecs: 834209412
  frame_id: "map"
pose: 
  position: 
    x: -0.530342161655
    y: 0.240837290883
    z: -1.68631720543
  orientation: 
    x: -0.0137427800886
    y: -0.0302310184015
    z: 0.687772686246
    w: -0.72516618684
---
header: 
  seq: 3619
  stamp: 
    secs: 1723803128
    nsecs: 867084872
  frame_id: "map"
pose: 
  position: 
    x: -0.530003130436
    y: 0.24057841301
    z: -1.69316387177
  orientation: 
    x: -0.0137258996172
    y: -0.0302867529988
    z: 0.687770192997
    w: -0.725166657041
---
header: 
  seq: 3620
  stamp: 
    secs: 1723803128
    nsecs: 900897138
  frame_id: "map"
pose: 
  position: 
    x: -0.529772222042
    y: 0.240111500025
    z: -1.70210909843
  orientation: 
    x: -0.0136806595851
    y: -0.0303926212724
    z: 0.687771764284
    w: -0.725161461125
---
header: 
  seq: 3621
  stamp: 
    secs: 1723803128
    nsecs: 933068689
  frame_id: "map"
pose: 
  position: 
    x: -0.529665529728
    y: 0.239744484425
    z: -1.70893478394
  orientation: 
    x: -0.0136808729535
    y: -0.0304440140858
    z: 0.687769514696
    w: -0.725161519077
---
header: 
  seq: 3622
  stamp: 
    secs: 1723803128
    nsecs: 966171856
  frame_id: "map"
pose: 
  position: 
    x: -0.529562532902
    y: 0.239388272166
    z: -1.71552443504
  orientation: 
    x: -0.0137017395948
    y: -0.0304283104335
    z: 0.687767366524
    w: -0.725163751543
---
header: 
  seq: 3623
  stamp: 
    secs: 1723803129
    nsecs:     27939
  frame_id: "map"
pose: 
  position: 
    x: -0.529482543468
    y: 0.239170432091
    z: -1.72323775291
  orientation: 
    x: -0.0137615150213
    y: -0.0303758975347
    z: 0.68775920584
    w: -0.725172502282
---
header: 
  seq: 3624
  stamp: 
    secs: 1723803129
    nsecs:  31692603
  frame_id: "map"
pose: 
  position: 
    x: -0.529440820217
    y: 0.239081114531
    z: -1.72923672199
  orientation: 
    x: -0.0137629447214
    y: -0.0303399100529
    z: 0.687742353686
    w: -0.725190113079
---
header: 
  seq: 3625
  stamp: 
    secs: 1723803129
    nsecs:  69511723
  frame_id: "map"
pose: 
  position: 
    x: -0.529330790043
    y: 0.238928601146
    z: -1.73687696457
  orientation: 
    x: -0.0137206918472
    y: -0.0303002768688
    z: 0.68773002705
    w: -0.725204209883
---
header: 
  seq: 3626
  stamp: 
    secs: 1723803129
    nsecs: 101244237
  frame_id: "map"
pose: 
  position: 
    x: -0.529122591019
    y: 0.238689824939
    z: -1.74271225929
  orientation: 
    x: -0.0137137731786
    y: -0.0302681227747
    z: 0.687725490996
    w: -0.725210010343
---
header: 
  seq: 3627
  stamp: 
    secs: 1723803129
    nsecs: 134279670
  frame_id: "map"
pose: 
  position: 
    x: -0.528871417046
    y: 0.238392233849
    z: -1.74873280525
  orientation: 
    x: -0.0137563717887
    y: -0.0302132383583
    z: 0.687725786024
    w: -0.725211232602
---
header: 
  seq: 3628
  stamp: 
    secs: 1723803129
    nsecs: 167310875
  frame_id: "map"
pose: 
  position: 
    x: -0.528573930264
    y: 0.238048136234
    z: -1.75462532043
  orientation: 
    x: -0.0137816658247
    y: -0.0302071711877
    z: 0.687727053063
    w: -0.725209712681
---
header: 
  seq: 3629
  stamp: 
    secs: 1723803129
    nsecs: 204612004
  frame_id: "map"
pose: 
  position: 
    x: -0.528251945972
    y: 0.237695261836
    z: -1.76250016689
  orientation: 
    x: -0.0137741577587
    y: -0.0302690355174
    z: 0.687728637521
    w: -0.725205768
---
header: 
  seq: 3630
  stamp: 
    secs: 1723803129
    nsecs: 231986127
  frame_id: "map"
pose: 
  position: 
    x: -0.528018891811
    y: 0.237471267581
    z: -1.76801669598
  orientation: 
    x: -0.0137032423934
    y: -0.0303830829138
    z: 0.687727033307
    w: -0.725203916172
---
header: 
  seq: 3631
  stamp: 
    secs: 1723803129
    nsecs: 268896490
  frame_id: "map"
pose: 
  position: 
    x: -0.527785122395
    y: 0.237254485488
    z: -1.77375125885
  orientation: 
    x: -0.0136646931735
    y: -0.0304218613071
    z: 0.687731653655
    w: -0.725198705768
---
header: 
  seq: 3632
  stamp: 
    secs: 1723803129
    nsecs: 301548811
  frame_id: "map"
pose: 
  position: 
    x: -0.52753007412
    y: 0.237133398652
    z: -1.78106927872
  orientation: 
    x: -0.0136819417713
    y: -0.0304094569628
    z: 0.687732179174
    w: -0.725198264543
---
header: 
  seq: 3633
  stamp: 
    secs: 1723803129
    nsecs: 334467078
  frame_id: "map"
pose: 
  position: 
    x: -0.527365326881
    y: 0.237070202827
    z: -1.78619873524
  orientation: 
    x: -0.0137466128176
    y: -0.0303541583219
    z: 0.687721884806
    w: -0.725209233261
---
header: 
  seq: 3634
  stamp: 
    secs: 1723803129
    nsecs: 367748598
  frame_id: "map"
pose: 
  position: 
    x: -0.527193307877
    y: 0.237014621496
    z: -1.79184746742
  orientation: 
    x: -0.013765002673
    y: -0.0303314431462
    z: 0.687719961856
    w: -0.725211661973
---
header: 
  seq: 3635
  stamp: 
    secs: 1723803129
    nsecs: 400492429
  frame_id: "map"
pose: 
  position: 
    x: -0.526969134808
    y: 0.236871227622
    z: -1.7996186018
  orientation: 
    x: -0.0137222697199
    y: -0.0303035485179
    z: 0.687715060968
    w: -0.725218164441
---
header: 
  seq: 3636
  stamp: 
    secs: 1723803129
    nsecs: 433711394
  frame_id: "map"
pose: 
  position: 
    x: -0.5267983675
    y: 0.236733496189
    z: -1.80547451973
  orientation: 
    x: -0.0136588308103
    y: -0.0303143433795
    z: 0.687714586816
    w: -0.72521948153
---
header: 
  seq: 3637
  stamp: 
    secs: 1723803129
    nsecs: 466868220
  frame_id: "map"
pose: 
  position: 
    x: -0.526599884033
    y: 0.236597985029
    z: -1.81175398827
  orientation: 
    x: -0.0136472483295
    y: -0.0302984171391
    z: 0.687723428434
    w: -0.725211988611
---
header: 
  seq: 3638
  stamp: 
    secs: 1723803129
    nsecs: 500158868
  frame_id: "map"
pose: 
  position: 
    x: -0.526532948017
    y: 0.236442506313
    z: -1.8195990324
  orientation: 
    x: -0.0136411403292
    y: -0.0302333180389
    z: 0.687735290138
    w: -0.725203414361
---
header: 
  seq: 3639
  stamp: 
    secs: 1723803129
    nsecs: 532263092
  frame_id: "map"
pose: 
  position: 
    x: -0.526488780975
    y: 0.236264780164
    z: -1.82552170753
  orientation: 
    x: -0.0136911903703
    y: -0.0302087194259
    z: 0.687738642129
    w: -0.725200399545
---
header: 
  seq: 3640
  stamp: 
    secs: 1723803129
    nsecs: 568169473
  frame_id: "map"
pose: 
  position: 
    x: -0.526359915733
    y: 0.23606826365
    z: -1.83166193962
  orientation: 
    x: -0.0136999338658
    y: -0.0302503440486
    z: 0.687755279598
    w: -0.725182666258
---
header: 
  seq: 3641
  stamp: 
    secs: 1723803129
    nsecs: 601945696
  frame_id: "map"
pose: 
  position: 
    x: -0.526132106781
    y: 0.235711142421
    z: -1.83857536316
  orientation: 
    x: -0.0136685318295
    y: -0.0302824098978
    z: 0.687753505479
    w: -0.725183681734
---
header: 
  seq: 3642
  stamp: 
    secs: 1723803129
    nsecs: 635126770
  frame_id: "map"
pose: 
  position: 
    x: -0.525951504707
    y: 0.235423520207
    z: -1.84418678284
  orientation: 
    x: -0.0136494584049
    y: -0.0304425014091
    z: 0.687746233831
    w: -0.725184209886
---
header: 
  seq: 3643
  stamp: 
    secs: 1723803129
    nsecs: 667956505
  frame_id: "map"
pose: 
  position: 
    x: -0.525762498379
    y: 0.235163241625
    z: -1.84978115559
  orientation: 
    x: -0.0136267155703
    y: -0.0304576077616
    z: 0.687751192671
    w: -0.725179251046
---
header: 
  seq: 3644
  stamp: 
    secs: 1723803129
    nsecs: 701831317
  frame_id: "map"
pose: 
  position: 
    x: -0.525655508041
    y: 0.234865188599
    z: -1.85684466362
  orientation: 
    x: -0.0136622644614
    y: -0.030440843194
    z: 0.687741364552
    w: -0.72518874199
---
header: 
  seq: 3645
  stamp: 
    secs: 1723803129
    nsecs: 733863793
  frame_id: "map"
pose: 
  position: 
    x: -0.525633752346
    y: 0.234627172351
    z: -1.86251580715
  orientation: 
    x: -0.0137090994882
    y: -0.0303756821906
    z: 0.68771794671
    w: -0.725212665595
---
header: 
  seq: 3646
  stamp: 
    secs: 1723803129
    nsecs: 766851597
  frame_id: "map"
pose: 
  position: 
    x: -0.525600969791
    y: 0.234390288591
    z: -1.86781287193
  orientation: 
    x: -0.013746766917
    y: -0.0303514332647
    z: 0.6877165664
    w: -0.725214298785
---
header: 
  seq: 3647
  stamp: 
    secs: 1723803129
    nsecs: 799943531
  frame_id: "map"
pose: 
  position: 
    x: -0.525550961494
    y: 0.234343871474
    z: -1.87355494499
  orientation: 
    x: -0.0137424949388
    y: -0.0303075919812
    z: 0.687725102454
    w: -0.725208122955
---
header: 
  seq: 3648
  stamp: 
    secs: 1723803129
    nsecs: 832503702
  frame_id: "map"
pose: 
  position: 
    x: -0.5254535079
    y: 0.234330430627
    z: -1.88104140759
  orientation: 
    x: -0.0137128380454
    y: -0.0302864039702
    z: 0.687724640156
    w: -0.725210102539
---
header: 
  seq: 3649
  stamp: 
    secs: 1723803129
    nsecs: 868475168
  frame_id: "map"
pose: 
  position: 
    x: -0.525264024734
    y: 0.234315767884
    z: -1.88657176495
  orientation: 
    x: -0.0137078489122
    y: -0.0302607549787
    z: 0.687829251268
    w: -0.725111982042
---
header: 
  seq: 3650
  stamp: 
    secs: 1723803129
    nsecs: 902933215
  frame_id: "map"
pose: 
  position: 
    x: -0.525176882744
    y: 0.234227225184
    z: -1.89418590069
  orientation: 
    x: -0.0136334063825
    y: -0.0302579317984
    z: 0.687895560115
    w: -0.725050646524
---
header: 
  seq: 3651
  stamp: 
    secs: 1723803129
    nsecs: 935033851
  frame_id: "map"
pose: 
  position: 
    x: -0.525343954563
    y: 0.233972847462
    z: -1.89991211891
  orientation: 
    x: -0.0136789006127
    y: -0.0304778099315
    z: 0.687980550552
    w: -0.724959839821
---
header: 
  seq: 3652
  stamp: 
    secs: 1723803129
    nsecs: 968092121
  frame_id: "map"
pose: 
  position: 
    x: -0.525351405144
    y: 0.23385040462
    z: -1.90577292442
  orientation: 
    x: -0.0137608143299
    y: -0.0305333950392
    z: 0.688078077042
    w: -0.724863493443
---
header: 
  seq: 3653
  stamp: 
    secs: 1723803130
    nsecs:   1540710
  frame_id: "map"
pose: 
  position: 
    x: -0.525129497051
    y: 0.234014704823
    z: -1.91311597824
  orientation: 
    x: -0.0137790211099
    y: -0.0303315280984
    z: 0.688283560051
    w: -0.72467638646
---
header: 
  seq: 3654
  stamp: 
    secs: 1723803130
    nsecs:  34190879
  frame_id: "map"
pose: 
  position: 
    x: -0.525182545185
    y: 0.234000623226
    z: -1.91844177246
  orientation: 
    x: -0.0137367306987
    y: -0.0303335234883
    z: 0.688345097084
    w: -0.724618642643
---
header: 
  seq: 3655
  stamp: 
    secs: 1723803130
    nsecs:  68144115
  frame_id: "map"
pose: 
  position: 
    x: -0.52521699667
    y: 0.233977377415
    z: -1.92445850372
  orientation: 
    x: -0.0137336948085
    y: -0.0303943137318
    z: 0.688413255123
    w: -0.724551496128
---
header: 
  seq: 3656
  stamp: 
    secs: 1723803130
    nsecs: 101956134
  frame_id: "map"
pose: 
  position: 
    x: -0.525007963181
    y: 0.234026908875
    z: -1.9321835041
  orientation: 
    x: -0.0137080622806
    y: -0.030286593631
    z: 0.688555790497
    w: -0.724421014754
---
header: 
  seq: 3657
  stamp: 
    secs: 1723803130
    nsecs: 134420455
  frame_id: "map"
pose: 
  position: 
    x: -0.524920701981
    y: 0.233873471618
    z: -1.93737590313
  orientation: 
    x: -0.0137479220041
    y: -0.0301757875907
    z: 0.688530290336
    w: -0.724449043725
---
header: 
  seq: 3658
  stamp: 
    secs: 1723803130
    nsecs: 167464283
  frame_id: "map"
pose: 
  position: 
    x: -0.524788677692
    y: 0.233590498567
    z: -1.94325435162
  orientation: 
    x: -0.0138099377989
    y: -0.0301975597306
    z: 0.688550784241
    w: -0.724427538296
---
header: 
  seq: 3659
  stamp: 
    secs: 1723803130
    nsecs: 200247233
  frame_id: "map"
pose: 
  position: 
    x: -0.524401664734
    y: 0.233271420002
    z: -1.94874918461
  orientation: 
    x: -0.0138439410861
    y: -0.0303043901378
    z: 0.688651861604
    w: -0.724326376639
---
header: 
  seq: 3660
  stamp: 
    secs: 1723803130
    nsecs: 235362331
  frame_id: "map"
pose: 
  position: 
    x: -0.524084627628
    y: 0.232815220952
    z: -1.95675551891
  orientation: 
    x: -0.0136602651202
    y: -0.0306141826453
    z: 0.688526366728
    w: -0.724436108594
---
header: 
  seq: 3661
  stamp: 
    secs: 1723803130
    nsecs: 268733146
  frame_id: "map"
pose: 
  position: 
    x: -0.524269640446
    y: 0.232810765505
    z: -1.96273612976
  orientation: 
    x: -0.0135538752794
    y: -0.0309084157216
    z: 0.688406942316
    w: -0.724539180029
---
header: 
  seq: 3662
  stamp: 
    secs: 1723803130
    nsecs: 301548701
  frame_id: "map"
pose: 
  position: 
    x: -0.5246758461
    y: 0.233447149396
    z: -1.96826088428
  orientation: 
    x: -0.0133637363577
    y: -0.0305850716853
    z: 0.688483239965
    w: -0.72448387151
---
header: 
  seq: 3663
  stamp: 
    secs: 1723803130
    nsecs: 334451024
  frame_id: "map"
pose: 
  position: 
    x: -0.525161743164
    y: 0.234058693051
    z: -1.97588992119
  orientation: 
    x: -0.0135842012539
    y: -0.0294159312785
    z: 0.688458536644
    w: -0.724551648911
---
header: 
  seq: 3664
  stamp: 
    secs: 1723803130
    nsecs: 367657753
  frame_id: "map"
pose: 
  position: 
    x: -0.525330483913
    y: 0.233872517943
    z: -1.981746912
  orientation: 
    x: -0.0138412812248
    y: -0.029224610928
    z: 0.688389432934
    w: -0.724620162564
---
header: 
  seq: 3665
  stamp: 
    secs: 1723803130
    nsecs: 400385676
  frame_id: "map"
pose: 
  position: 
    x: -0.525248348713
    y: 0.233590126038
    z: -1.98738598824
  orientation: 
    x: -0.0141849229199
    y: -0.0292910475322
    z: 0.688321390799
    w: -0.724675476352
---
header: 
  seq: 3666
  stamp: 
    secs: 1723803130
    nsecs: 433106264
  frame_id: "map"
pose: 
  position: 
    x: -0.524987578392
    y: 0.233627736568
    z: -1.99479627609
  orientation: 
    x: -0.0134669539897
    y: -0.0296951304423
    z: 0.68832918138
    w: -0.72466540984
---
header: 
  seq: 3667
  stamp: 
    secs: 1723803130
    nsecs: 469100855
  frame_id: "map"
pose: 
  position: 
    x: -0.524950385094
    y: 0.233680605888
    z: -2.00009870529
  orientation: 
    x: -0.0129360452856
    y: -0.0299006259633
    z: 0.688253471152
    w: -0.72473842267
---
header: 
  seq: 3668
  stamp: 
    secs: 1723803130
    nsecs: 503027283
  frame_id: "map"
pose: 
  position: 
    x: -0.525303483009
    y: 0.233486697078
    z: -2.00649595261
  orientation: 
    x: -0.0130610897167
    y: -0.0297752759674
    z: 0.688233946625
    w: -0.724759970246
---
header: 
  seq: 3669
  stamp: 
    secs: 1723803130
    nsecs: 535624398
  frame_id: "map"
pose: 
  position: 
    x: -0.525496125221
    y: 0.23323084414
    z: -2.01148247719
  orientation: 
    x: -0.0137648314514
    y: -0.0292786912616
    z: 0.688243916989
    w: -0.724757670609
---
header: 
  seq: 3670
  stamp: 
    secs: 1723803130
    nsecs: 568637253
  frame_id: "map"
pose: 
  position: 
    x: -0.525523424149
    y: 0.233029335737
    z: -2.01647806168
  orientation: 
    x: -0.0141812798517
    y: -0.0289580663555
    z: 0.68822050178
    w: -0.72478479474
---
header: 
  seq: 3671
  stamp: 
    secs: 1723803130
    nsecs: 601598318
  frame_id: "map"
pose: 
  position: 
    x: -0.525433242321
    y: 0.232852786779
    z: -2.02183675766
  orientation: 
    x: -0.0141411441981
    y: -0.0289903100117
    z: 0.688186423419
    w: -0.724816597171
---
header: 
  seq: 3672
  stamp: 
    secs: 1723803130
    nsecs: 634756843
  frame_id: "map"
pose: 
  position: 
    x: -0.525171995163
    y: 0.232576072216
    z: -2.02901887894
  orientation: 
    x: -0.01343818679
    y: -0.0297228887518
    z: 0.688219915676
    w: -0.724768522105
---
header: 
  seq: 3673
  stamp: 
    secs: 1723803130
    nsecs: 667798589
  frame_id: "map"
pose: 
  position: 
    x: -0.524870574474
    y: 0.232377275825
    z: -2.03434562683
  orientation: 
    x: -0.0132425812904
    y: -0.0299520141668
    z: 0.688219496841
    w: -0.724763124674
---
header: 
  seq: 3674
  stamp: 
    secs: 1723803130
    nsecs: 700935878
  frame_id: "map"
pose: 
  position: 
    x: -0.524633944035
    y: 0.232135266066
    z: -2.03983139992
  orientation: 
    x: -0.0132276889649
    y: -0.0301327938539
    z: 0.688209788578
    w: -0.724765077917
---
header: 
  seq: 3675
  stamp: 
    secs: 1723803130
    nsecs: 735961583
  frame_id: "map"
pose: 
  position: 
    x: -0.524619042873
    y: 0.231864959002
    z: -2.04688119888
  orientation: 
    x: -0.0135644600652
    y: -0.0298751218515
    z: 0.688228507047
    w: -0.724751669951
---
header: 
  seq: 3676
  stamp: 
    secs: 1723803130
    nsecs: 769292265
  frame_id: "map"
pose: 
  position: 
    x: -0.524589598179
    y: 0.231725856662
    z: -2.05282115936
  orientation: 
    x: -0.0137703382006
    y: -0.0296480359489
    z: 0.688252985147
    w: -0.724734019641
---
header: 
  seq: 3677
  stamp: 
    secs: 1723803130
    nsecs: 802866178
  frame_id: "map"
pose: 
  position: 
    x: -0.524305641651
    y: 0.231527969241
    z: -2.05864715576
  orientation: 
    x: -0.0137210263878
    y: -0.0296530724973
    z: 0.688261673983
    w: -0.724726342329
---
header: 
  seq: 3678
  stamp: 
    secs: 1723803130
    nsecs: 836213452
  frame_id: "map"
pose: 
  position: 
    x: -0.523644804955
    y: 0.230934113264
    z: -2.06651711464
  orientation: 
    x: -0.0134659385141
    y: -0.0300379990062
    z: 0.68827480536
    w: -0.724702842827
---
header: 
  seq: 3679
  stamp: 
    secs: 1723803130
    nsecs: 869064976
  frame_id: "map"
pose: 
  position: 
    x: -0.522888720036
    y: 0.230689391494
    z: -2.07161474228
  orientation: 
    x: -0.0133466221031
    y: -0.0303908853491
    z: 0.688272065815
    w: -0.724693022611
---
header: 
  seq: 3680
  stamp: 
    secs: 1723803130
    nsecs: 902761401
  frame_id: "map"
pose: 
  position: 
    x: -0.522123634815
    y: 0.230641707778
    z: -2.07670807838
  orientation: 
    x: -0.0132362296286
    y: -0.0309374450221
    z: 0.688301908418
    w: -0.724643539577
---
header: 
  seq: 3681
  stamp: 
    secs: 1723803130
    nsecs: 935115638
  frame_id: "map"
pose: 
  position: 
    x: -0.521526515484
    y: 0.230831056833
    z: -2.08380246162
  orientation: 
    x: -0.0131054044938
    y: -0.0308841885277
    z: 0.688294779015
    w: -0.724654883665
---
header: 
  seq: 3682
  stamp: 
    secs: 1723803130
    nsecs: 969474973
  frame_id: "map"
pose: 
  position: 
    x: -0.521553874016
    y: 0.231003254652
    z: -2.08939099312
  orientation: 
    x: -0.0131514986581
    y: -0.0308465606116
    z: 0.688262710532
    w: -0.724686109211
---
header: 
  seq: 3683
  stamp: 
    secs: 1723803131
    nsecs:   2031858
  frame_id: "map"
pose: 
  position: 
    x: -0.521588087082
    y: 0.231596142054
    z: -2.09433889389
  orientation: 
    x: -0.0133609112018
    y: -0.0304671750962
    z: 0.688227434937
    w: -0.724731921518
---
header: 
  seq: 3684
  stamp: 
    secs: 1723803131
    nsecs:  35133552
  frame_id: "map"
pose: 
  position: 
    x: -0.521572887897
    y: 0.232498854399
    z: -2.10058474541
  orientation: 
    x: -0.0133810093216
    y: -0.0296535176733
    z: 0.688184832375
    w: -0.724805628454
---
header: 
  seq: 3685
  stamp: 
    secs: 1723803131
    nsecs:  69206165
  frame_id: "map"
pose: 
  position: 
    x: -0.521477222443
    y: 0.232676699758
    z: -2.10532307625
  orientation: 
    x: -0.0134416876126
    y: -0.0295232549355
    z: 0.688156824477
    w: -0.724836586631
---
header: 
  seq: 3686
  stamp: 
    secs: 1723803131
    nsecs: 103132120
  frame_id: "map"
pose: 
  position: 
    x: -0.520960390568
    y: 0.232605487108
    z: -2.10982584953
  orientation: 
    x: -0.0136747959048
    y: -0.0295152108143
    z: 0.688196080316
    w: -0.724795223451
---
header: 
  seq: 3687
  stamp: 
    secs: 1723803131
    nsecs: 136126939
  frame_id: "map"
pose: 
  position: 
    x: -0.519705951214
    y: 0.232271432877
    z: -2.1158285141
  orientation: 
    x: -0.0135952312159
    y: -0.0298543316014
    z: 0.688256317382
    w: -0.72472554549
---
header: 
  seq: 3688
  stamp: 
    secs: 1723803131
    nsecs: 169333820
  frame_id: "map"
pose: 
  position: 
    x: -0.518779158592
    y: 0.231743887067
    z: -2.1201505661
  orientation: 
    x: -0.0134435763183
    y: -0.0302456993342
    z: 0.688255075367
    w: -0.724713300514
---
header: 
  seq: 3689
  stamp: 
    secs: 1723803131
    nsecs: 202442052
  frame_id: "map"
pose: 
  position: 
    x: -0.518488883972
    y: 0.231806799769
    z: -2.12493777275
  orientation: 
    x: -0.0131639280271
    y: -0.0312318025633
    z: 0.688306082273
    w: -0.724628238954
---
header: 
  seq: 3690
  stamp: 
    secs: 1723803131
    nsecs: 235877201
  frame_id: "map"
pose: 
  position: 
    x: -0.518679201603
    y: 0.232733398676
    z: -2.13141441345
  orientation: 
    x: -0.0129082224387
    y: -0.0313422806485
    z: 0.688291964396
    w: -0.7246414296
---
header: 
  seq: 3691
  stamp: 
    secs: 1723803131
    nsecs: 268361580
  frame_id: "map"
pose: 
  position: 
    x: -0.519047558308
    y: 0.23356461525
    z: -2.13633823395
  orientation: 
    x: -0.012978146036
    y: -0.0310825566215
    z: 0.688265475102
    w: -0.724676516852
---
header: 
  seq: 3692
  stamp: 
    secs: 1723803131
    nsecs: 301409984
  frame_id: "map"
pose: 
  position: 
    x: -0.519379496574
    y: 0.234220981598
    z: -2.14091205597
  orientation: 
    x: -0.0133752872284
    y: -0.0303007148009
    z: 0.688253289394
    w: -0.724713990669
---
header: 
  seq: 3693
  stamp: 
    secs: 1723803131
    nsecs: 333898623
  frame_id: "map"
pose: 
  position: 
    x: -0.519514024258
    y: 0.234662309289
    z: -2.14520335197
  orientation: 
    x: -0.0136842545796
    y: -0.0298805693317
    z: 0.688222016432
    w: -0.724755378874
---
header: 
  seq: 3694
  stamp: 
    secs: 1723803131
    nsecs: 370251447
  frame_id: "map"
pose: 
  position: 
    x: -0.519160866737
    y: 0.234886035323
    z: -2.1518034935
  orientation: 
    x: -0.0136034314121
    y: -0.0300876855307
    z: 0.688185778045
    w: -0.724782766423
---
header: 
  seq: 3695
  stamp: 
    secs: 1723803131
    nsecs: 403513289
  frame_id: "map"
pose: 
  position: 
    x: -0.518531501293
    y: 0.235010281205
    z: -2.15666794777
  orientation: 
    x: -0.0134315526126
    y: -0.0303972633527
    z: 0.688182028293
    w: -0.724776653813
---
header: 
  seq: 3696
  stamp: 
    secs: 1723803131
    nsecs: 436465030
  frame_id: "map"
pose: 
  position: 
    x: -0.517824172974
    y: 0.235035732388
    z: -2.16298270226
  orientation: 
    x: -0.013238461436
    y: -0.0310393211989
    z: 0.688167732609
    w: -0.724766588618
---
header: 
  seq: 3697
  stamp: 
    secs: 1723803131
    nsecs: 475070712
  frame_id: "map"
pose: 
  position: 
    x: -0.517368495464
    y: 0.235104739666
    z: -2.1686360836
  orientation: 
    x: -0.0132522691387
    y: -0.0311691288825
    z: 0.688173637119
    w: -0.724755120724
---
header: 
  seq: 3698
  stamp: 
    secs: 1723803131
    nsecs: 501451245
  frame_id: "map"
pose: 
  position: 
    x: -0.517607212067
    y: 0.235367506742
    z: -2.17315101624
  orientation: 
    x: -0.0136038120508
    y: -0.0309784657595
    z: 0.688155731294
    w: -0.724773700899
---
header: 
  seq: 3699
  stamp: 
    secs: 1723803131
    nsecs: 534122800
  frame_id: "map"
pose: 
  position: 
    x: -0.517788589001
    y: 0.235655978322
    z: -2.17780542374
  orientation: 
    x: -0.0140394879752
    y: -0.0308477591626
    z: 0.68813667565
    w: -0.724789131914
---
header: 
  seq: 3700
  stamp: 
    secs: 1723803131
    nsecs: 570218338
  frame_id: "map"
pose: 
  position: 
    x: -0.51809489727
    y: 0.236242294312
    z: -2.18417263031
  orientation: 
    x: -0.0138533773703
    y: -0.0309427798911
    z: 0.688107810327
    w: -0.724816058482
---
header: 
  seq: 3701
  stamp: 
    secs: 1723803131
    nsecs: 603843352
  frame_id: "map"
pose: 
  position: 
    x: -0.517952382565
    y: 0.236847683787
    z: -2.18891644478
  orientation: 
    x: -0.0136309500115
    y: -0.0310548035803
    z: 0.688125920301
    w: -0.724798369976
---
header: 
  seq: 3702
  stamp: 
    secs: 1723803131
    nsecs: 637111856
  frame_id: "map"
pose: 
  position: 
    x: -0.51777523756
    y: 0.237472474575
    z: -2.19570875168
  orientation: 
    x: -0.0133263290541
    y: -0.0310159066489
    z: 0.688155413875
    w: -0.724777642947
---
header: 
  seq: 3703
  stamp: 
    secs: 1723803131
    nsecs: 669737033
  frame_id: "map"
pose: 
  position: 
    x: -0.51763433218
    y: 0.237660616636
    z: -2.20105552673
  orientation: 
    x: -0.0134378515908
    y: -0.0309427114025
    z: 0.688140613746
    w: -0.724792695957
---
header: 
  seq: 3704
  stamp: 
    secs: 1723803131
    nsecs: 702683329
  frame_id: "map"
pose: 
  position: 
    x: -0.517495632172
    y: 0.237780794501
    z: -2.20608639717
  orientation: 
    x: -0.0138746839193
    y: -0.0306321721056
    z: 0.688128670383
    w: -0.724809106886
---
header: 
  seq: 3705
  stamp: 
    secs: 1723803131
    nsecs: 735746242
  frame_id: "map"
pose: 
  position: 
    x: -0.517137408257
    y: 0.237809613347
    z: -2.21141195297
  orientation: 
    x: -0.0141321445289
    y: -0.0306522168833
    z: 0.688147905151
    w: -0.72478489879
---
header: 
  seq: 3706
  stamp: 
    secs: 1723803131
    nsecs: 768817417
  frame_id: "map"
pose: 
  position: 
    x: -0.516637742519
    y: 0.237821623683
    z: -2.21870660782
  orientation: 
    x: -0.0140137250555
    y: -0.0308583544852
    z: 0.688115755008
    w: -0.724809041032
---
header: 
  seq: 3707
  stamp: 
    secs: 1723803131
    nsecs: 802230850
  frame_id: "map"
pose: 
  position: 
    x: -0.516715824604
    y: 0.238289952278
    z: -2.22355723381
  orientation: 
    x: -0.0135798133719
    y: -0.0314481410197
    z: 0.688073982213
    w: -0.724831679158
---
header: 
  seq: 3708
  stamp: 
    secs: 1723803131
    nsecs: 834350232
  frame_id: "map"
pose: 
  position: 
    x: -0.51690864563
    y: 0.238926008344
    z: -2.22834777832
  orientation: 
    x: -0.0133220373195
    y: -0.0314291492546
    z: 0.688122877825
    w: -0.72479087574
---
header: 
  seq: 3709
  stamp: 
    secs: 1723803131
    nsecs: 868819071
  frame_id: "map"
pose: 
  position: 
    x: -0.517403364182
    y: 0.239764615893
    z: -2.23483085632
  orientation: 
    x: -0.0133952147852
    y: -0.0311736445222
    z: 0.688118232452
    w: -0.724804962007
---
header: 
  seq: 3710
  stamp: 
    secs: 1723803131
    nsecs: 904712317
  frame_id: "map"
pose: 
  position: 
    x: -0.517901003361
    y: 0.240296810865
    z: -2.23997020721
  orientation: 
    x: -0.013808843298
    y: -0.0305278026792
    z: 0.688084435948
    w: -0.724856713068
---
header: 
  seq: 3711
  stamp: 
    secs: 1723803131
    nsecs: 934435865
  frame_id: "map"
pose: 
  position: 
    x: -0.518309473991
    y: 0.240887448192
    z: -2.24506378174
  orientation: 
    x: -0.0139983276263
    y: -0.0300161109624
    z: 0.688119176805
    w: -0.724841528349
---
header: 
  seq: 3712
  stamp: 
    secs: 1723803131
    nsecs: 970553471
  frame_id: "map"
pose: 
  position: 
    x: -0.518474876881
    y: 0.241583168507
    z: -2.25205302238
  orientation: 
    x: -0.0137187814096
    y: -0.0297830909151
    z: 0.688185518579
    w: -0.724793478308
---
header: 
  seq: 3713
  stamp: 
    secs: 1723803132
    nsecs:   3922160
  frame_id: "map"
pose: 
  position: 
    x: -0.518368959427
    y: 0.241716951132
    z: -2.25719952583
  orientation: 
    x: -0.0136102052009
    y: -0.0298171172513
    z: 0.688224912711
    w: -0.724756612986
---
header: 
  seq: 3714
  stamp: 
    secs: 1723803132
    nsecs:  36984419
  frame_id: "map"
pose: 
  position: 
    x: -0.518063783646
    y: 0.241483002901
    z: -2.26216030121
  orientation: 
    x: -0.0136916513515
    y: -0.0300534135575
    z: 0.688406480018
    w: -0.724572938337
---
header: 
  seq: 3715
  stamp: 
    secs: 1723803132
    nsecs:  70087961
  frame_id: "map"
pose: 
  position: 
    x: -0.517428278923
    y: 0.24102216959
    z: -2.26924848557
  orientation: 
    x: -0.0138035775761
    y: -0.0301988465266
    z: 0.688510767126
    w: -0.724465616656
---
header: 
  seq: 3716
  stamp: 
    secs: 1723803132
    nsecs: 104235963
  frame_id: "map"
pose: 
  position: 
    x: -0.517253816128
    y: 0.240973249078
    z: -2.27458739281
  orientation: 
    x: -0.0138146477093
    y: -0.030463688103
    z: 0.688644833617
    w: -0.724326914012
---
header: 
  seq: 3717
  stamp: 
    secs: 1723803132
    nsecs: 137128793
  frame_id: "map"
pose: 
  position: 
    x: -0.517280936241
    y: 0.241059973836
    z: -2.27978539467
  orientation: 
    x: -0.0136753424968
    y: -0.0308483301207
    z: 0.688785675214
    w: -0.724179328919
---
header: 
  seq: 3718
  stamp: 
    secs: 1723803132
    nsecs: 170129621
  frame_id: "map"
pose: 
  position: 
    x: -0.517397165298
    y: 0.241251572967
    z: -2.28685498238
  orientation: 
    x: -0.0136077692448
    y: -0.0309903452438
    z: 0.688853808228
    w: -0.724109678618
---
header: 
  seq: 3719
  stamp: 
    secs: 1723803132
    nsecs: 203369121
  frame_id: "map"
pose: 
  position: 
    x: -0.517587900162
    y: 0.24150903523
    z: -2.29219198227
  orientation: 
    x: -0.0135875341477
    y: -0.0310483807957
    z: 0.688913041673
    w: -0.724051203817
---
header: 
  seq: 3720
  stamp: 
    secs: 1723803132
    nsecs: 236329017
  frame_id: "map"
pose: 
  position: 
    x: -0.517928302288
    y: 0.241872563958
    z: -2.29768157005
  orientation: 
    x: -0.0136795209617
    y: -0.0308441042406
    z: 0.688952558294
    w: -0.724020622327
---
header: 
  seq: 3721
  stamp: 
    secs: 1723803132
    nsecs: 270245746
  frame_id: "map"
pose: 
  position: 
    x: -0.518813371658
    y: 0.242954522371
    z: -2.30493330956
  orientation: 
    x: -0.013697407689
    y: -0.0306641839541
    z: 0.688951509892
    w: -0.724028919988
---
header: 
  seq: 3722
  stamp: 
    secs: 1723803132
    nsecs: 311700783
  frame_id: "map"
pose: 
  position: 
    x: -0.519731521606
    y: 0.244184032083
    z: -2.3099462986
  orientation: 
    x: -0.0133911383947
    y: -0.0298452430287
    z: 0.688935679799
    w: -0.724084030943
---
header: 
  seq: 3723
  stamp: 
    secs: 1723803132
    nsecs: 340702481
  frame_id: "map"
pose: 
  position: 
    x: -0.520304083824
    y: 0.244918167591
    z: -2.31501150131
  orientation: 
    x: -0.0135004422951
    y: -0.0287539201922
    z: 0.688977463131
    w: -0.724086333215
---
header: 
  seq: 3724
  stamp: 
    secs: 1723803132
    nsecs: 370420835
  frame_id: "map"
pose: 
  position: 
    x: -0.520053088665
    y: 0.244570896029
    z: -2.32168245316
  orientation: 
    x: -0.0138297165247
    y: -0.0285108204627
    z: 0.68897458134
    w: -0.72409250246
---
header: 
  seq: 3725
  stamp: 
    secs: 1723803132
    nsecs: 404306594
  frame_id: "map"
pose: 
  position: 
    x: -0.519582629204
    y: 0.243650093675
    z: -2.3257188797
  orientation: 
    x: -0.0142777072313
    y: -0.0289277594787
    z: 0.688889058799
    w: -0.724148690795
---
header: 
  seq: 3726
  stamp: 
    secs: 1723803132
    nsecs: 437345855
  frame_id: "map"
pose: 
  position: 
    x: -0.518921613693
    y: 0.242633983493
    z: -2.32974028587
  orientation: 
    x: -0.0139453490378
    y: -0.0301958145877
    z: 0.688922522079
    w: -0.724071479085
---
header: 
  seq: 3727
  stamp: 
    secs: 1723803132
    nsecs: 470390625
  frame_id: "map"
pose: 
  position: 
    x: -0.517955422401
    y: 0.241519033909
    z: -2.33506727219
  orientation: 
    x: -0.0134950014003
    y: -0.0312805407838
    z: 0.688920528007
    w: -0.724035878169
---
header: 
  seq: 3728
  stamp: 
    secs: 1723803132
    nsecs: 503366535
  frame_id: "map"
pose: 
  position: 
    x: -0.51815277338
    y: 0.242035403848
    z: -2.33887815475
  orientation: 
    x: -0.0130821203356
    y: -0.0324146703304
    z: 0.68881274271
    w: -0.724096206114
---
header: 
  seq: 3729
  stamp: 
    secs: 1723803132
    nsecs: 536561997
  frame_id: "map"
pose: 
  position: 
    x: -0.519016265869
    y: 0.243095964193
    z: -2.34259653091
  orientation: 
    x: -0.0128098444502
    y: -0.031938518285
    z: 0.688797430233
    w: -0.7241368067
---
header: 
  seq: 3730
  stamp: 
    secs: 1723803132
    nsecs: 569787212
  frame_id: "map"
pose: 
  position: 
    x: -0.52099531889
    y: 0.244560852647
    z: -2.3473842144
  orientation: 
    x: -0.0129721559151
    y: -0.0315230623112
    z: 0.688856909973
    w: -0.724095534399
---
header: 
  seq: 3731
  stamp: 
    secs: 1723803132
    nsecs: 602549785
  frame_id: "map"
pose: 
  position: 
    x: -0.521780431271
    y: 0.245313495398
    z: -2.35076999664
  orientation: 
    x: -0.0138189256144
    y: -0.0300902828303
    z: 0.688959450621
    w: -0.7240431485
---
header: 
  seq: 3732
  stamp: 
    secs: 1723803132
    nsecs: 635051298
  frame_id: "map"
pose: 
  position: 
    x: -0.522287845612
    y: 0.246132105589
    z: -2.3542509079
  orientation: 
    x: -0.0140622722981
    y: -0.0290062777404
    z: 0.688825493449
    w: -0.724210233096
---
header: 
  seq: 3733
  stamp: 
    secs: 1723803132
    nsecs: 671684856
  frame_id: "map"
pose: 
  position: 
    x: -0.522332429886
    y: 0.246579781175
    z: -2.35938215256
  orientation: 
    x: -0.0138885324518
    y: -0.0287719623361
    z: 0.688836128943
    w: -0.724212747419
---
header: 
  seq: 3734
  stamp: 
    secs: 1723803132
    nsecs: 702570883
  frame_id: "map"
pose: 
  position: 
    x: -0.522118449211
    y: 0.246671304107
    z: -2.36338472366
  orientation: 
    x: -0.0137699575619
    y: -0.0291479438349
    z: 0.688855521761
    w: -0.724181637776
---
header: 
  seq: 3735
  stamp: 
    secs: 1723803132
    nsecs: 736568355
  frame_id: "map"
pose: 
  position: 
    x: -0.521612107754
    y: 0.246510833502
    z: -2.36738991737
  orientation: 
    x: -0.0135677600318
    y: -0.0299998244981
    z: 0.688804480611
    w: -0.724199130035
---
header: 
  seq: 3736
  stamp: 
    secs: 1723803132
    nsecs: 770336187
  frame_id: "map"
pose: 
  position: 
    x: -0.521076440811
    y: 0.246411949396
    z: -2.37188410759
  orientation: 
    x: -0.0134953846732
    y: -0.0303415419262
    z: 0.688799682455
    w: -0.724190862668
---
header: 
  seq: 3737
  stamp: 
    secs: 1723803132
    nsecs: 803840941
  frame_id: "map"
pose: 
  position: 
    x: -0.520647168159
    y: 0.246413350105
    z: -2.37771844864
  orientation: 
    x: -0.0134356560035
    y: -0.0306425481328
    z: 0.688825658085
    w: -0.724154518913
---
header: 
  seq: 3738
  stamp: 
    secs: 1723803132
    nsecs: 835411051
  frame_id: "map"
pose: 
  position: 
    x: -0.521373748779
    y: 0.246985897422
    z: -2.38181209564
  orientation: 
    x: -0.0135567564116
    y: -0.0306928773969
    z: 0.688798476002
    w: -0.724176053319
---
header: 
  seq: 3739
  stamp: 
    secs: 1723803132
    nsecs: 871259447
  frame_id: "map"
pose: 
  position: 
    x: -0.522136211395
    y: 0.247763887048
    z: -2.38751840591
  orientation: 
    x: -0.013661260181
    y: -0.0305204645178
    z: 0.688837349884
    w: -0.724144344401
---
header: 
  seq: 3740
  stamp: 
    secs: 1723803132
    nsecs: 905698903
  frame_id: "map"
pose: 
  position: 
    x: -0.522717535496
    y: 0.24813914299
    z: -2.39181447029
  orientation: 
    x: -0.0136837804275
    y: -0.0305645257552
    z: 0.688841750278
    w: -0.724137836664
---
header: 
  seq: 3741
  stamp: 
    secs: 1723803132
    nsecs: 937819316
  frame_id: "map"
pose: 
  position: 
    x: -0.523462057114
    y: 0.248389035463
    z: -2.39623785019
  orientation: 
    x: -0.013610620084
    y: -0.0309515168011
    z: 0.688772413444
    w: -0.724188713178
---
header: 
  seq: 3742
  stamp: 
    secs: 1723803132
    nsecs: 971279648
  frame_id: "map"
pose: 
  position: 
    x: -0.524568200111
    y: 0.249111145735
    z: -2.40236568451
  orientation: 
    x: -0.0135924890366
    y: -0.0311560897013
    z: 0.688772458225
    w: -0.724180323321
---
header: 
  seq: 3743
  stamp: 
    secs: 1723803133
    nsecs:   3824912
  frame_id: "map"
pose: 
  position: 
    x: -0.525537550449
    y: 0.249897480011
    z: -2.40644741058
  orientation: 
    x: -0.0133547972746
    y: -0.0308821819426
    z: 0.688816563585
    w: -0.724154593988
---
header: 
  seq: 3744
  stamp: 
    secs: 1723803133
    nsecs:  36975501
  frame_id: "map"
pose: 
  position: 
    x: -0.526661276817
    y: 0.250730454922
    z: -2.4110853672
  orientation: 
    x: -0.0133837429399
    y: -0.0303259475923
    z: 0.688770292931
    w: -0.724221432304
---
header: 
  seq: 3745
  stamp: 
    secs: 1723803133
    nsecs:  69919170
  frame_id: "map"
pose: 
  position: 
    x: -0.527765929699
    y: 0.251596689224
    z: -2.41561055183
  orientation: 
    x: -0.0134335480025
    y: -0.0300650737465
    z: 0.688779665336
    w: -0.72422259661
---
header: 
  seq: 3746
  stamp: 
    secs: 1723803133
    nsecs: 102956006
  frame_id: "map"
pose: 
  position: 
    x: -0.528560042381
    y: 0.252710789442
    z: -2.42138886452
  orientation: 
    x: -0.0137238067627
    y: -0.0292966326481
    z: 0.688789881996
    w: -0.724238932466
---
header: 
  seq: 3747
  stamp: 
    secs: 1723803133
    nsecs: 136933705
  frame_id: "map"
pose: 
  position: 
    x: -0.528988540173
    y: 0.253377258778
    z: -2.4257569313
  orientation: 
    x: -0.0136534761849
    y: -0.0288347117495
    z: 0.688633970267
    w: -0.724406982487
---
header: 
  seq: 3748
  stamp: 
    secs: 1723803133
    nsecs: 170422766
  frame_id: "map"
pose: 
  position: 
    x: -0.52950078249
    y: 0.253710597754
    z: -2.43005514145
  orientation: 
    x: -0.0135837185408
    y: -0.0287992866648
    z: 0.688609264311
    w: -0.72443320573
---
header: 
  seq: 3749
  stamp: 
    secs: 1723803133
    nsecs: 205192146
  frame_id: "map"
pose: 
  position: 
    x: -0.529802381992
    y: 0.253623962402
    z: -2.43591666222
  orientation: 
