header: 
  seq: 819
  stamp: 
    secs: 1723701030
    nsecs: 746023875
  frame_id: "map"
pose: 
  position: 
    x: -0.682801544666
    y: -1.21065986156
    z: 0.0227543823421
  orientation: 
    x: 0.643342898368
    y: -0.151166331386
    z: -0.721697177204
    w: -0.205941471529
---
header: 
  seq: 820
  stamp: 
    secs: 1723701030
    nsecs: 783621128
  frame_id: "map"
pose: 
  position: 
    x: -0.693242490292
    y: -1.23016500473
    z: 0.0241392441094
  orientation: 
    x: 0.643356617167
    y: -0.150530440809
    z: -0.721962428395
    w: -0.20543412884
---
header: 
  seq: 821
  stamp: 
    secs: 1723701030
    nsecs: 811391191
  frame_id: "map"
pose: 
  position: 
    x: -0.707530617714
    y: -1.25832843781
    z: 0.0250257793814
  orientation: 
    x: 0.64549877289
    y: -0.149622934867
    z: -0.720673008785
    w: -0.203898950957
---
header: 
  seq: 822
  stamp: 
    secs: 1723701030
    nsecs: 845406839
  frame_id: "map"
pose: 
  position: 
    x: -0.717934668064
    y: -1.27974033356
    z: 0.024769673124
  orientation: 
    x: 0.650636663384
    y: -0.149534826881
    z: -0.716871658077
    w: -0.201013114092
---
header: 
  seq: 823
  stamp: 
    secs: 1723701030
    nsecs: 877202904
  frame_id: "map"
pose: 
  position: 
    x: -0.728281021118
    y: -1.29906988144
    z: 0.0238208025694
  orientation: 
    x: 0.654537691388
    y: -0.150134492241
    z: -0.713817275966
    w: -0.198758763459
---
header: 
  seq: 824
  stamp: 
    secs: 1723701030
    nsecs: 910353216
  frame_id: "map"
pose: 
  position: 
    x: -0.73913371563
    y: -1.31821370125
    z: 0.0218639224768
  orientation: 
    x: 0.66491841803
    y: -0.15355146369
    z: -0.70491881184
    w: -0.193378212485
---
header: 
  seq: 825
  stamp: 
    secs: 1723701030
    nsecs: 944908175
  frame_id: "map"
pose: 
  position: 
    x: -0.755050837994
    y: -1.34574139118
    z: 0.0168882068247
  orientation: 
    x: 0.670719215231
    y: -0.156965906329
    z: -0.699139404164
    w: -0.191576750812
---
header: 
  seq: 826
  stamp: 
    secs: 1723701030
    nsecs: 976886005
  frame_id: "map"
pose: 
  position: 
    x: -0.768716037273
    y: -1.36481356621
    z: 0.0119397034869
  orientation: 
    x: 0.681327366267
    y: -0.168809802963
    z: -0.685457061998
    w: -0.193507202914
---
header: 
  seq: 827
  stamp: 
    secs: 1723701031
    nsecs:  11168860
  frame_id: "map"
pose: 
  position: 
    x: -0.781748592854
    y: -1.38166260719
    z: 0.00727884378284
  orientation: 
    x: 0.689537256255
    y: -0.184940392339
    z: -0.671281770291
    w: -0.199289371208
---
header: 
  seq: 828
  stamp: 
    secs: 1723701031
    nsecs:  44875731
  frame_id: "map"
pose: 
  position: 
    x: -0.797902107239
    y: -1.41002249718
    z: -0.00102582050022
  orientation: 
    x: 0.692788000534
    y: -0.192972780875
    z: -0.664912664985
    w: -0.201736206499
---
header: 
  seq: 829
  stamp: 
    secs: 1723701031
    nsecs:  76346475
  frame_id: "map"
pose: 
  position: 
    x: -0.809051215649
    y: -1.42945897579
    z: -0.0073914071545
  orientation: 
    x: 0.696968757172
    y: -0.207996235761
    z: -0.654724591588
    w: -0.20568890654
---
header: 
  seq: 830
  stamp: 
    secs: 1723701031
    nsecs: 108998725
  frame_id: "map"
pose: 
  position: 
    x: -0.819528460503
    y: -1.44755256176
    z: -0.0136428289115
  orientation: 
    x: 0.698113254844
    y: -0.221240334997
    z: -0.648199016107
    w: -0.208635371645
---
header: 
  seq: 831
  stamp: 
    secs: 1723701031
    nsecs: 145860405
  frame_id: "map"
pose: 
  position: 
    x: -0.832170605659
    y: -1.47659015656
    z: -0.0240232907236
  orientation: 
    x: 0.696691494129
    y: -0.23236092849
    z: -0.6450653347
    w: -0.210998271487
---
header: 
  seq: 832
  stamp: 
    secs: 1723701031
    nsecs: 177998207
  frame_id: "map"
pose: 
  position: 
    x: -0.841543793678
    y: -1.49749481678
    z: -0.0313774123788
  orientation: 
    x: 0.694994261613
    y: -0.2369028204
    z: -0.644845918206
    w: -0.212211932137
---
header: 
  seq: 833
  stamp: 
    secs: 1723701031
    nsecs: 211600628
  frame_id: "map"
pose: 
  position: 
    x: -0.853134453297
    y: -1.52533793449
    z: -0.0392336882651
  orientation: 
    x: 0.690150998663
    y: -0.244346291022
    z: -0.646419302208
    w: -0.214775598491
---
header: 
  seq: 834
  stamp: 
    secs: 1723701031
    nsecs: 245372909
  frame_id: "map"
pose: 
  position: 
    x: -0.861875593662
    y: -1.54639029503
    z: -0.0438894256949
  orientation: 
    x: 0.683768975348
    y: -0.250812439447
    z: -0.649687558502
    w: -0.217851285835
---
header: 
  seq: 835
  stamp: 
    secs: 1723701031
    nsecs: 276850277
  frame_id: "map"
pose: 
  position: 
    x: -0.870478391647
    y: -1.56567895412
    z: -0.0475322455168
  orientation: 
    x: 0.680162743475
    y: -0.254198074714
    z: -0.651414799575
    w: -0.220047410596
---
header: 
  seq: 836
  stamp: 
    secs: 1723701031
    nsecs: 311949731
  frame_id: "map"
pose: 
  position: 
    x: -0.882517576218
    y: -1.59013426304
    z: -0.0510503724217
  orientation: 
    x: 0.672843226735
    y: -0.261031638291
    z: -0.654306157676
    w: -0.225893937128
---
header: 
  seq: 837
  stamp: 
    secs: 1723701031
    nsecs: 345807486
  frame_id: "map"
pose: 
  position: 
    x: -0.889547407627
    y: -1.60325479507
    z: -0.0521931871772
  orientation: 
    x: 0.666349598565
    y: -0.267216245768
    z: -0.656078432656
    w: -0.232668790145
---
header: 
  seq: 838
  stamp: 
    secs: 1723701031
    nsecs: 376888875
  frame_id: "map"
pose: 
  position: 
    x: -0.904001355171
    y: -1.62777626514
    z: -0.0528071410954
  orientation: 
    x: 0.661489645463
    y: -0.27181581564
    z: -0.656967604719
    w: -0.238623423343
---
header: 
  seq: 839
  stamp: 
    secs: 1723701031
    nsecs: 411261333
  frame_id: "map"
pose: 
  position: 
    x: -0.914750277996
    y: -1.64541435242
    z: -0.0519344173372
  orientation: 
    x: 0.652987572447
    y: -0.279313107787
    z: -0.65820084258
    w: -0.249726146573
---
header: 
  seq: 840
  stamp: 
    secs: 1723701031
    nsecs: 445343543
  frame_id: "map"
pose: 
  position: 
    x: -0.930460870266
    y: -1.67013835907
    z: -0.048898499459
  orientation: 
    x: 0.648334792179
    y: -0.283175550352
    z: -0.658782848411
    w: -0.255888310853
---
header: 
  seq: 841
  stamp: 
    secs: 1723701031
    nsecs: 477974352
  frame_id: "map"
pose: 
  position: 
    x: -0.941501200199
    y: -1.6867223978
    z: -0.0454497635365
  orientation: 
    x: 0.638554647592
    y: -0.291046526995
    z: -0.659744470907
    w: -0.268844167792
---
header: 
  seq: 842
  stamp: 
    secs: 1723701031
    nsecs: 511146392
  frame_id: "map"
pose: 
  position: 
    x: -0.951993823051
    y: -1.70186471939
    z: -0.0412478111684
  orientation: 
    x: 0.628646260682
    y: -0.299132399882
    z: -0.659949894646
    w: -0.282471171146
---
header: 
  seq: 843
  stamp: 
    secs: 1723701031
    nsecs: 545373149
  frame_id: "map"
pose: 
  position: 
    x: -0.966871917248
    y: -1.72370243073
    z: -0.0349257960916
  orientation: 
    x: 0.620538987733
    y: -0.3063935327
    z: -0.659227708397
    w: -0.294063282508
---
header: 
  seq: 844
  stamp: 
    secs: 1723701031
    nsecs: 576965785
  frame_id: "map"
pose: 
  position: 
    x: -0.977544844151
    y: -1.73877346516
    z: -0.0285150408745
  orientation: 
    x: 0.615311261231
    y: -0.311476021162
    z: -0.658236835989
    w: -0.301826394828
---
header: 
  seq: 845
  stamp: 
    secs: 1723701031
    nsecs: 610446185
  frame_id: "map"
pose: 
  position: 
    x: -0.986353039742
    y: -1.75230717659
    z: -0.0208843909204
  orientation: 
    x: 0.608179656215
    y: -0.317567779132
    z: -0.65732707519
    w: -0.31175220946
---
header: 
  seq: 846
  stamp: 
    secs: 1723701031
    nsecs: 644800659
  frame_id: "map"
pose: 
  position: 
    x: -0.99777173996
    y: -1.77222836018
    z: -0.00946019496769
  orientation: 
    x: 0.603480914809
    y: -0.321013663319
    z: -0.657109449938
    w: -0.31775516402
---
header: 
  seq: 847
  stamp: 
    secs: 1723701031
    nsecs: 675950274
  frame_id: "map"
pose: 
  position: 
    x: -1.00465202332
    y: -1.78584194183
    z: -0.000480522052385
  orientation: 
    x: 0.597177685026
    y: -0.324946807222
    z: -0.657557481474
    w: -0.324663780598
---
header: 
  seq: 848
  stamp: 
    secs: 1723701031
    nsecs: 708974981
  frame_id: "map"
pose: 
  position: 
    x: -1.01076161861
    y: -1.7997944355
    z: 0.00859833043069
  orientation: 
    x: 0.589563877916
    y: -0.328000325324
    z: -0.659431045868
    w: -0.33163372084
---
header: 
  seq: 849
  stamp: 
    secs: 1723701031
    nsecs: 745936056
  frame_id: "map"
pose: 
  position: 
    x: -1.01811361313
    y: -1.81990838051
    z: 0.0197382047772
  orientation: 
    x: 0.583349778182
    y: -0.329502744569
    z: -0.662129424087
    w: -0.33573143765
---
header: 
  seq: 850
  stamp: 
    secs: 1723701031
    nsecs: 778007905
  frame_id: "map"
pose: 
  position: 
    x: -1.02207458019
    y: -1.83430373669
    z: 0.0278467312455
  orientation: 
    x: 0.580495530381
    y: -0.329942399419
    z: -0.66370850845
    w: -0.337125982037
---
header: 
  seq: 851
  stamp: 
    secs: 1723701031
    nsecs: 812134628
  frame_id: "map"
pose: 
  position: 
    x: -1.02527832985
    y: -1.8489433527
    z: 0.0347318053246
  orientation: 
    x: 0.574906805585
    y: -0.330135653257
    z: -0.667647415934
    w: -0.338732503998
---
header: 
  seq: 852
  stamp: 
    secs: 1723701031
    nsecs: 845293228
  frame_id: "map"
pose: 
  position: 
    x: -1.0287899971
    y: -1.87135028839
    z: 0.0428005680442
  orientation: 
    x: 0.569790441593
    y: -0.329572813705
    z: -0.672217061543
    w: -0.338887772988
---
header: 
  seq: 853
  stamp: 
    secs: 1723701031
    nsecs: 877110222
  frame_id: "map"
pose: 
  position: 
    x: -1.02952647209
    y: -1.88711810112
    z: 0.0481019727886
  orientation: 
    x: 0.566169721741
    y: -0.328976151307
    z: -0.675918914079
    w: -0.338171771789
---
header: 
  seq: 854
  stamp: 
    secs: 1723701031
    nsecs: 910345143
  frame_id: "map"
pose: 
  position: 
    x: -1.02909958363
    y: -1.9033639431
    z: 0.0523741394281
  orientation: 
    x: 0.560965903039
    y: -0.328031924923
    z: -0.681879142271
    w: -0.335787450811
---
header: 
  seq: 855
  stamp: 
    secs: 1723701031
    nsecs: 944970504
  frame_id: "map"
pose: 
  position: 
    x: -1.02620279789
    y: -1.92746472359
    z: 0.0569638088346
  orientation: 
    x: 0.556907245821
    y: -0.327503993499
    z: -0.68686896035
    w: -0.33287606242
---
header: 
  seq: 856
  stamp: 
    secs: 1723701031
    nsecs: 976000724
  frame_id: "map"
pose: 
  position: 
    x: -1.02241635323
    y: -1.94331657887
    z: 0.0597851015627
  orientation: 
    x: 0.551717419873
    y: -0.327512538772
    z: -0.693913953592
    w: -0.326843942241
---
header: 
  seq: 857
  stamp: 
    secs: 1723701032
    nsecs:   9797229
  frame_id: "map"
pose: 
  position: 
    x: -1.01721096039
    y: -1.95761704445
    z: 0.0619364380836
  orientation: 
    x: 0.547843271021
    y: -0.329827085642
    z: -0.700721976179
    w: -0.316339388159
---
header: 
  seq: 858
  stamp: 
    secs: 1723701032
    nsecs:  45947626
  frame_id: "map"
pose: 
  position: 
    x: -1.01243805885
    y: -1.97984278202
    z: 0.0643687769771
  orientation: 
    x: 0.547092140424
    y: -0.333083003446
    z: -0.70458808552
    w: -0.305453131143
---
header: 
  seq: 859
  stamp: 
    secs: 1723701032
    nsecs:  77944464
  frame_id: "map"
pose: 
  position: 
    x: -1.00707697868
    y: -1.99507403374
    z: 0.0666060820222
  orientation: 
    x: 0.547478268776
    y: -0.334907561592
    z: -0.705808679326
    w: -0.299897733967
---
header: 
  seq: 860
  stamp: 
    secs: 1723701032
    nsecs: 111538436
  frame_id: "map"
pose: 
  position: 
    x: -1.00080156326
    y: -2.00810956955
    z: 0.0688664466143
  orientation: 
    x: 0.549464460086
    y: -0.338734937978
    z: -0.706511562318
    w: -0.290153171857
---
header: 
  seq: 861
  stamp: 
    secs: 1723701032
    nsecs: 145954639
  frame_id: "map"
pose: 
  position: 
    x: -0.992817223072
    y: -2.02683877945
    z: 0.0716559663415
  orientation: 
    x: 0.551463695845
    y: -0.340830184259
    z: -0.706087902197
    w: -0.284890379177
---
header: 
  seq: 862
  stamp: 
    secs: 1723701032
    nsecs: 178007224
  frame_id: "map"
pose: 
  position: 
    x: -0.987377405167
    y: -2.03922080994
    z: 0.0725505724549
  orientation: 
    x: 0.552733253753
    y: -0.341603568392
    z: -0.705064492422
    w: -0.28403724267
---
header: 
  seq: 863
  stamp: 
    secs: 1723701032
    nsecs: 211679598
  frame_id: "map"
pose: 
  position: 
    x: -0.981372416019
    y: -2.0499894619
    z: 0.072935782373
  orientation: 
    x: 0.555468447244
    y: -0.343006689662
    z: -0.702051624956
    w: -0.284472998937
---
header: 
  seq: 864
  stamp: 
    secs: 1723701032
    nsecs: 245664045
  frame_id: "map"
pose: 
  position: 
    x: -0.975370585918
    y: -2.06942391396
    z: 0.0731578692794
  orientation: 
    x: 0.558046664798
    y: -0.343880889058
    z: -0.697983484697
    w: -0.288355777356
---
header: 
  seq: 865
  stamp: 
    secs: 1723701032
    nsecs: 277437101
  frame_id: "map"
pose: 
  position: 
    x: -0.969888687134
    y: -2.08249187469
    z: 0.0736436545849
  orientation: 
    x: 0.560025006256
    y: -0.344450577472
    z: -0.694154000968
    w: -0.293046152612
---
header: 
  seq: 866
  stamp: 
    secs: 1723701032
    nsecs: 310380687
  frame_id: "map"
pose: 
  position: 
    x: -0.963562190533
    y: -2.09436941147
    z: 0.0745350420475
  orientation: 
    x: 0.562485823764
    y: -0.3456924449
    z: -0.687792629608
    w: -0.301741363562
---
header: 
  seq: 867
  stamp: 
    secs: 1723701032
    nsecs: 344799130
  frame_id: "map"
pose: 
  position: 
    x: -0.953934788704
    y: -2.11220550537
    z: 0.0774956792593
  orientation: 
    x: 0.563928036236
    y: -0.34695487999
    z: -0.682684347275
    w: -0.309110992905
---
header: 
  seq: 868
  stamp: 
    secs: 1723701032
    nsecs: 375945993
  frame_id: "map"
pose: 
  position: 
    x: -0.94654327631
    y: -2.12397551537
    z: 0.0803510397673
  orientation: 
    x: 0.565471095581
    y: -0.349646988866
    z: -0.674726052899
    w: -0.320521957111
---
header: 
  seq: 869
  stamp: 
    secs: 1723701032
    nsecs: 409102288
  frame_id: "map"
pose: 
  position: 
    x: -0.938038051128
    y: -2.13428378105
    z: 0.0839143246412
  orientation: 
    x: 0.566482388137
    y: -0.354923247464
    z: -0.663677393539
    w: -0.33564798689
---
header: 
  seq: 870
  stamp: 
    secs: 1723701032
    nsecs: 443823940
  frame_id: "map"
pose: 
  position: 
    x: -0.926632761955
    y: -2.14784955978
    z: 0.0865512415767
  orientation: 
    x: 0.566487804007
    y: -0.357195362993
    z: -0.659938820562
    w: -0.340563974227
---
header: 
  seq: 871
  stamp: 
    secs: 1723701032
    nsecs: 478027337
  frame_id: "map"
pose: 
  position: 
    x: -0.917458772659
    y: -2.15628004074
    z: 0.0885730981827
  orientation: 
    x: 0.565327511804
    y: -0.365561839061
    z: -0.648329892608
    w: -0.355580812057
---
header: 
  seq: 872
  stamp: 
    secs: 1723701032
    nsecs: 510511070
  frame_id: "map"
pose: 
  position: 
    x: -0.906863987446
    y: -2.16341948509
    z: 0.0905207693577
  orientation: 
    x: 0.563633155811
    y: -0.373327027114
    z: -0.638340341404
    w: -0.368057533085
---
header: 
  seq: 873
  stamp: 
    secs: 1723701032
    nsecs: 544585247
  frame_id: "map"
pose: 
  position: 
    x: -0.895127892494
    y: -2.17375159264
    z: 0.0911357700825
  orientation: 
    x: 0.561961243014
    y: -0.37945799219
    z: -0.630617057855
    w: -0.377535979994
---
header: 
  seq: 874
  stamp: 
    secs: 1723701032
    nsecs: 576069015
  frame_id: "map"
pose: 
  position: 
    x: -0.886134564877
    y: -2.18103218079
    z: 0.0906422734261
  orientation: 
    x: 0.558995369284
    y: -0.38885041738
    z: -0.619100010031
    w: -0.391196532239
---
header: 
  seq: 875
  stamp: 
    secs: 1723701032
    nsecs: 609060026
  frame_id: "map"
pose: 
  position: 
    x: -0.877245783806
    y: -2.18879437447
    z: 0.089359857142
  orientation: 
    x: 0.553767395169
    y: -0.401171874687
    z: -0.604222140897
    w: -0.409045838488
---
header: 
  seq: 876
  stamp: 
    secs: 1723701032
    nsecs: 646348566
  frame_id: "map"
pose: 
  position: 
    x: -0.865164577961
    y: -2.20092797279
    z: 0.086818985641
  orientation: 
    x: 0.548055670064
    y: -0.412241644349
    z: -0.591455444283
    w: -0.424113668737
---
header: 
  seq: 877
  stamp: 
    secs: 1723701032
    nsecs: 678081142
  frame_id: "map"
pose: 
  position: 
    x: -0.855875134468
    y: -2.20926856995
    z: 0.0838702693582
  orientation: 
    x: 0.545070319222
    y: -0.418040128742
    z: -0.584984796681
    w: -0.431200334676
---
header: 
  seq: 878
  stamp: 
    secs: 1723701032
    nsecs: 711599463
  frame_id: "map"
pose: 
  position: 
    x: -0.846519112587
    y: -2.21699976921
    z: 0.0804017037153
  orientation: 
    x: 0.540148705281
    y: -0.428565924836
    z: -0.573321778516
    w: -0.442575236985
---
header: 
  seq: 879
  stamp: 
    secs: 1723701032
    nsecs: 745648136
  frame_id: "map"
pose: 
  position: 
    x: -0.835851669312
    y: -2.23014569283
    z: 0.0752387419343
  orientation: 
    x: 0.535636732366
    y: -0.441636742572
    z: -0.559097238217
    w: -0.453277733741
---
header: 
  seq: 880
  stamp: 
    secs: 1723701032
    nsecs: 777510859
  frame_id: "map"
pose: 
  position: 
    x: -0.828395605087
    y: -2.23877024651
    z: 0.0719057321548
  orientation: 
    x: 0.533744001693
    y: -0.448435450706
    z: -0.551738245685
    w: -0.457829577575
---
header: 
  seq: 881
  stamp: 
    secs: 1723701032
    nsecs: 810497774
  frame_id: "map"
pose: 
  position: 
    x: -0.821560323238
    y: -2.24782180786
    z: 0.0689475312829
  orientation: 
    x: 0.530545867218
    y: -0.462257625579
    z: -0.536686233675
    w: -0.465625335265
---
header: 
  seq: 882
  stamp: 
    secs: 1723701032
    nsecs: 844968058
  frame_id: "map"
pose: 
  position: 
    x: -0.814140498638
    y: -2.26185679436
    z: 0.0661112293601
  orientation: 
    x: 0.52912366923
    y: -0.469243123276
    z: -0.528980419994
    w: -0.469061588897
---
header: 
  seq: 883
  stamp: 
    secs: 1723701032
    nsecs: 876022151
  frame_id: "map"
pose: 
  position: 
    x: -0.808404266834
    y: -2.27094173431
    z: 0.0644451156259
  orientation: 
    x: 0.525737197611
    y: -0.482791958714
    z: -0.513911696759
    w: -0.475822578235
---
header: 
  seq: 884
  stamp: 
    secs: 1723701032
    nsecs: 909431381
  frame_id: "map"
pose: 
  position: 
    x: -0.802558541298
    y: -2.27886366844
    z: 0.0630529001355
  orientation: 
    x: 0.520210315412
    y: -0.497060097294
    z: -0.498245952877
    w: -0.483801074123
---
header: 
  seq: 885
  stamp: 
    secs: 1723701032
    nsecs: 945923643
  frame_id: "map"
pose: 
  position: 
    x: -0.796575367451
    y: -2.29321622849
    z: 0.0604631640017
  orientation: 
    x: 0.514656736149
    y: -0.507398102507
    z: -0.48699309039
    w: -0.490421660784
---
header: 
  seq: 886
  stamp: 
    secs: 1723701032
    nsecs: 978177865
  frame_id: "map"
pose: 
  position: 
    x: -0.792392134666
    y: -2.3024315834
    z: 0.0592356994748
  orientation: 
    x: 0.510332185
    y: -0.514615697631
    z: -0.479195998161
    w: -0.495078728506
---
header: 
  seq: 887
  stamp: 
    secs: 1723701033
    nsecs:  11592824
  frame_id: "map"
pose: 
  position: 
    x: -0.787938773632
    y: -2.31065559387
    z: 0.0582137741148
  orientation: 
    x: 0.503918845589
    y: -0.524492580759
    z: -0.468857230682
    w: -0.50114506995
---
header: 
  seq: 888
  stamp: 
    secs: 1723701033
    nsecs:  45356977
  frame_id: "map"
pose: 
  position: 
    x: -0.784743964672
    y: -2.32624435425
    z: 0.0557966716588
  orientation: 
    x: 0.496395733887
    y: -0.534965718976
    z: -0.458419493843
    w: -0.507202653412
---
header: 
  seq: 889
  stamp: 
    secs: 1723701033
    nsecs:  77060207
  frame_id: "map"
pose: 
  position: 
    x: -0.78172147274
    y: -2.33685183525
    z: 0.0536884851754
  orientation: 
    x: 0.492807995261
    y: -0.53994219626
    z: -0.453712294091
    w: -0.509654743887
---
header: 
  seq: 890
  stamp: 
    secs: 1723701033
    nsecs: 110518143
  frame_id: "map"
pose: 
  position: 
    x: -0.777494668961
    y: -2.34666204453
    z: 0.0517062209547
  orientation: 
    x: 0.486205443829
    y: -0.54954889076
    z: -0.445131330077
    w: -0.513282020208
---
header: 
  seq: 891
  stamp: 
    secs: 1723701033
    nsecs: 145025453
  frame_id: "map"
pose: 
  position: 
    x: -0.775382936001
    y: -2.36197733879
    z: 0.0501432567835
  orientation: 
    x: 0.483258633646
    y: -0.554327908742
    z: -0.441148468698
    w: -0.514363492536
---
header: 
  seq: 892
  stamp: 
    secs: 1723701033
    nsecs: 175992183
  frame_id: "map"
pose: 
  position: 
    x: -0.77291148901
    y: -2.37226843834
    z: 0.04962284863
  orientation: 
    x: 0.478176803728
    y: -0.56406924135
    z: -0.433664684616
    w: -0.514886303118
---
header: 
  seq: 893
  stamp: 
    secs: 1723701033
    nsecs: 209038811
  frame_id: "map"
pose: 
  position: 
    x: -0.769686341286
    y: -2.38160538673
    z: 0.0497599467635
  orientation: 
    x: 0.472807213569
    y: -0.575008874715
    z: -0.426501055897
    w: -0.513726687899
---
header: 
  seq: 894
  stamp: 
    secs: 1723701033
    nsecs: 246228212
  frame_id: "map"
pose: 
  position: 
    x: -0.769427716732
    y: -2.39687204361
    z: 0.0521544478834
  orientation: 
    x: 0.468479817508
    y: -0.583528364916
    z: -0.421681495281
    w: -0.512060607172
---
header: 
  seq: 895
  stamp: 
    secs: 1723701033
    nsecs: 278192474
  frame_id: "map"
pose: 
  position: 
    x: -0.768292188644
    y: -2.40686893463
    z: 0.0547040589154
  orientation: 
    x: 0.465034165128
    y: -0.589583581568
    z: -0.418487017045
    w: -0.510884710099
---
header: 
  seq: 896
  stamp: 
    secs: 1723701033
    nsecs: 311539623
  frame_id: "map"
pose: 
  position: 
    x: -0.765652954578
    y: -2.41561818123
    z: 0.0574177093804
  orientation: 
    x: 0.459407650414
    y: -0.597896789287
    z: -0.414214796478
    w: -0.509794249956
---
header: 
  seq: 897
  stamp: 
    secs: 1723701033
    nsecs: 345530822
  frame_id: "map"
pose: 
  position: 
    x: -0.768066704273
    y: -2.43071174622
    z: 0.0600796230137
  orientation: 
    x: 0.451983108995
    y: -0.606810884626
    z: -0.409270797292
    w: -0.509891445857
---
header: 
  seq: 898
  stamp: 
    secs: 1723701033
    nsecs: 377033151
  frame_id: "map"
pose: 
  position: 
    x: -0.769097447395
    y: -2.4403231144
    z: 0.0624108538032
  orientation: 
    x: 0.447921475156
    y: -0.611031074909
    z: -0.406615213929
    w: -0.510559973899
---
header: 
  seq: 899
  stamp: 
    secs: 1723701033
    nsecs: 411356903
  frame_id: "map"
pose: 
  position: 
    x: -0.769639074802
    y: -2.44858717918
    z: 0.0650598704815
  orientation: 
    x: 0.439117467386
    y: -0.618948060106
    z: -0.400847818105
    w: -0.513225445966
---
header: 
  seq: 900
  stamp: 
    secs: 1723701033
    nsecs: 445447817
  frame_id: "map"
pose: 
  position: 
    x: -0.775442898273
    y: -2.46221160889
    z: 0.0691042244434
  orientation: 
    x: 0.434490006837
    y: -0.622604878733
    z: -0.397629247677
    w: -0.515240302401
---
header: 
  seq: 901
  stamp: 
    secs: 1723701033
    nsecs: 476027752
  frame_id: "map"
pose: 
  position: 
    x: -0.778331875801
    y: -2.47060155869
    z: 0.0725691094995
  orientation: 
    x: 0.42515705085
    y: -0.629030376523
    z: -0.390656636378
    w: -0.520528304165
---
header: 
  seq: 902
  stamp: 
    secs: 1723701033
    nsecs: 513260323
  frame_id: "map"
pose: 
  position: 
    x: -0.781126081944
    y: -2.47777557373
    z: 0.0759011209011
  orientation: 
    x: 0.414388847157
    y: -0.634940397282
    z: -0.382217862661
    w: -0.528244428018
---
header: 
  seq: 903
  stamp: 
    secs: 1723701033
    nsecs: 546212485
  frame_id: "map"
pose: 
  position: 
    x: -0.787891030312
    y: -2.48925828934
    z: 0.0796309038997
  orientation: 
    x: 0.406027038853
    y: -0.638383668365
    z: -0.375543082067
    w: -0.535327780161
---
header: 
  seq: 904
  stamp: 
    secs: 1723701033
    nsecs: 578389744
  frame_id: "map"
pose: 
  position: 
    x: -0.791964173317
    y: -2.49640870094
    z: 0.082574121654
  orientation: 
    x: 0.400160513642
    y: -0.640350767152
    z: -0.370646529696
    w: -0.540780670933
---
header: 
  seq: 905
  stamp: 
    secs: 1723701033
    nsecs: 611657851
  frame_id: "map"
pose: 
  position: 
    x: -0.795235812664
    y: -2.50241494179
    z: 0.0858399569988
  orientation: 
    x: 0.392369805672
    y: -0.64246640197
    z: -0.363704227249
    w: -0.548636632761
---
header: 
  seq: 906
  stamp: 
    secs: 1723701033
    nsecs: 645384915
  frame_id: "map"
pose: 
  position: 
    x: -0.801440477371
    y: -2.51085042953
    z: 0.0910552069545
  orientation: 
    x: 0.384237718765
    y: -0.644133162314
    z: -0.355845810367
    w: -0.557519133768
---
header: 
  seq: 907
  stamp: 
    secs: 1723701033
    nsecs: 677055056
  frame_id: "map"
pose: 
  position: 
    x: -0.804413676262
    y: -2.51589512825
    z: 0.0951858535409
  orientation: 
    x: 0.380540323259
    y: -0.644793118742
    z: -0.351984642745
    w: -0.561727507129
---
header: 
  seq: 908
  stamp: 
    secs: 1723701033
    nsecs: 710691493
  frame_id: "map"
pose: 
  position: 
    x: -0.807194113731
    y: -2.52041482925
    z: 0.0995866954327
  orientation: 
    x: 0.374172419138
    y: -0.645900758994
    z: -0.344435499437
    w: -0.569360606959
---
header: 
  seq: 909
  stamp: 
    secs: 1723701033
    nsecs: 745453242
  frame_id: "map"
pose: 
  position: 
    x: -0.811245799065
    y: -2.52810406685
    z: 0.104812115431
  orientation: 
    x: 0.371417574679
    y: -0.646461354226
    z: -0.340802641293
    w: -0.572704422016
---
header: 
  seq: 910
  stamp: 
    secs: 1723701033
    nsecs: 776040313
  frame_id: "map"
pose: 
  position: 
    x: -0.813399732113
    y: -2.53316712379
    z: 0.108572907746
  orientation: 
    x: 0.366799291607
    y: -0.647783669451
    z: -0.334019885742
    w: -0.578156938734
---
header: 
  seq: 911
  stamp: 
    secs: 1723701033
    nsecs: 810556999
  frame_id: "map"
pose: 
  position: 
    x: -0.815418958664
    y: -2.53813362122
    z: 0.112367510796
  orientation: 
    x: 0.363237134801
    y: -0.649551297741
    z: -0.327733904557
    w: -0.582007253543
---
header: 
  seq: 912
  stamp: 
    secs: 1723701033
    nsecs: 845776329
  frame_id: "map"
pose: 
  position: 
    x: -0.818596482277
    y: -2.54506635666
    z: 0.117809921503
  orientation: 
    x: 0.361808641128
    y: -0.650606117456
    z: -0.324744681474
    w: -0.583392789041
---
header: 
  seq: 913
  stamp: 
    secs: 1723701033
    nsecs: 876243013
  frame_id: "map"
pose: 
  position: 
    x: -0.820113539696
    y: -2.54943871498
    z: 0.121681325138
  orientation: 
    x: 0.359209044585
    y: -0.652963706794
    z: -0.319038388044
    w: -0.585509856852
---
header: 
  seq: 914
  stamp: 
    secs: 1723701033
    nsecs: 909101060
  frame_id: "map"
pose: 
  position: 
    x: -0.821310937405
    y: -2.55374908447
    z: 0.125383228064
  orientation: 
    x: 0.356278152739
    y: -0.656229497498
    z: -0.313171272776
    w: -0.586815671586
---
header: 
  seq: 915
  stamp: 
    secs: 1723701033
    nsecs: 945994325
  frame_id: "map"
pose: 
  position: 
    x: -0.824913144112
    y: -2.56064033508
    z: 0.129859954119
  orientation: 
    x: 0.353714254577
    y: -0.658953216509
    z: -0.309160483842
    w: -0.58744080418
---
header: 
  seq: 916
  stamp: 
    secs: 1723701033
    nsecs: 978064605
  frame_id: "map"
pose: 
  position: 
    x: -0.826610088348
    y: -2.56503582001
    z: 0.133899405599
  orientation: 
    x: 0.35208778662
    y: -0.660586090788
    z: -0.307063909936
    w: -0.587683591101
---
header: 
  seq: 917
  stamp: 
    secs: 1723701034
    nsecs:  11609744
  frame_id: "map"
pose: 
  position: 
    x: -0.827476859093
    y: -2.56873083115
    z: 0.13809710741
  orientation: 
    x: 0.34856647011
    y: -0.663999342778
    z: -0.303124233271
    w: -0.587981358585
---
header: 
  seq: 918
  stamp: 
    secs: 1723701034
    nsecs:  45967705
  frame_id: "map"
pose: 
  position: 
    x: -0.831458210945
    y: -2.57437109947
    z: 0.142374455929
  orientation: 
    x: 0.344606436518
    y: -0.667483454157
    z: -0.299438175268
    w: -0.588259422418
---
header: 
  seq: 919
  stamp: 
    secs: 1723701034
    nsecs:  78100452
  frame_id: "map"
pose: 
  position: 
    x: -0.832651615143
    y: -2.5776014328
    z: 0.145991563797
  orientation: 
    x: 0.342385676923
    y: -0.669170887531
    z: -0.297760836064
    w: -0.588490450368
---
header: 
  seq: 920
  stamp: 
    secs: 1723701034
    nsecs: 111562964
  frame_id: "map"
pose: 
  position: 
    x: -0.833443582058
    y: -2.58029103279
    z: 0.149124011397
  orientation: 
    x: 0.33733838108
    y: -0.672257090513
    z: -0.294628893215
    w: -0.589463378756
---
header: 
  seq: 921
  stamp: 
    secs: 1723701034
    nsecs: 145505298
  frame_id: "map"
pose: 
  position: 
    x: -0.837002754211
    y: -2.58411550522
    z: 0.152935728431
  orientation: 
    x: 0.331760077092
    y: -0.674629115147
    z: -0.291584520979
    w: -0.591429971781
---
header: 
  seq: 922
  stamp: 
    secs: 1723701034
    nsecs: 177070444
  frame_id: "map"
pose: 
  position: 
    x: -0.838877260685
    y: -2.58619880676
    z: 0.155716478825
  orientation: 
    x: 0.328857802957
    y: -0.675495865087
    z: -0.289922417862
    w: -0.59287687309
---
header: 
  seq: 923
  stamp: 
    secs: 1723701034
    nsecs: 211549753
  frame_id: "map"
pose: 
  position: 
    x: -0.840292036533
    y: -2.58766293526
    z: 0.158596307039
  orientation: 
    x: 0.323125821022
    y: -0.676349939362
    z: -0.286325964058
    w: -0.596789681139
---
header: 
  seq: 924
  stamp: 
    secs: 1723701034
    nsecs: 244945384
  frame_id: "map"
pose: 
  position: 
    x: -0.844059765339
    y: -2.58909153938
    z: 0.162044614553
  orientation: 
    x: 0.320400258086
    y: -0.676419829373
    z: -0.284329214963
    w: -0.599130011343
---
header: 
  seq: 925
  stamp: 
    secs: 1723701034
    nsecs: 277118835
  frame_id: "map"
pose: 
  position: 
    x: -0.847543179989
    y: -2.59010148048
    z: 0.167002215981
  orientation: 
    x: 0.315467201276
    y: -0.67602501877
    z: -0.280057210398
    w: -0.60418434571
---
header: 
  seq: 926
  stamp: 
    secs: 1723701034
    nsecs: 309594984
  frame_id: "map"
pose: 
  position: 
    x: -0.849623322487
    y: -2.59057569504
    z: 0.171014755964
  orientation: 
    x: 0.311508284575
    y: -0.675414795624
    z: -0.275911867649
    w: -0.608810499707
---
header: 
  seq: 927
  stamp: 
    secs: 1723701034
    nsecs: 345956906
  frame_id: "map"
pose: 
  position: 
    x: -0.853464365005
    y: -2.59188389778
    z: 0.177904829383
  orientation: 
    x: 0.308410849457
    y: -0.674935564883
    z: -0.27183049328
    w: -0.612742252764
---
header: 
  seq: 928
  stamp: 
    secs: 1723701034
    nsecs: 378168983
  frame_id: "map"
pose: 
  position: 
    x: -0.855257987976
    y: -2.59230828285
    z: 0.183580607176
  orientation: 
    x: 0.307082802261
    y: -0.674783499053
    z: -0.269769291117
    w: -0.614485161927
---
header: 
  seq: 929
  stamp: 
    secs: 1723701034
    nsecs: 412480959
  frame_id: "map"
pose: 
  position: 
    x: -0.856946349144
    y: -2.59264469147
    z: 0.190118178725
  orientation: 
    x: 0.304814669608
    y: -0.674698741741
    z: -0.265327245091
    w: -0.617633552584
---
header: 
  seq: 930
  stamp: 
    secs: 1723701034
    nsecs: 445515299
  frame_id: "map"
pose: 
  position: 
    x: -0.859445691109
    y: -2.59330224991
    z: 0.200238004327
  orientation: 
    x: 0.302751813181
    y: -0.674568107584
    z: -0.260549372977
    w: -0.620816672244
---
header: 
  seq: 931
  stamp: 
    secs: 1723701034
    nsecs: 477078461
  frame_id: "map"
pose: 
  position: 
    x: -0.860944151878
    y: -2.59352326393
    z: 0.207840770483
  orientation: 
    x: 0.301758116934
    y: -0.674385822464
    z: -0.258072149809
    w: -0.622530784573
---
header: 
  seq: 932
  stamp: 
    secs: 1723701034
    nsecs: 510829302
  frame_id: "map"
pose: 
  position: 
    x: -0.861845016479
    y: -2.59353065491
    z: 0.215395286679
  orientation: 
    x: 0.299862520275
    y: -0.67360458848
    z: -0.253281443979
    w: -0.62624910599
---
header: 
  seq: 933
  stamp: 
    secs: 1723701034
    nsecs: 546024791
  frame_id: "map"
pose: 
  position: 
    x: -0.864035904408
    y: -2.59389901161
    z: 0.224774509668
  orientation: 
    x: 0.297752712259
    y: -0.67218611522
    z: -0.24931588915
    w: -0.630357622929
---
header: 
  seq: 934
  stamp: 
    secs: 1723701034
    nsecs: 578293349
  frame_id: "map"
pose: 
  position: 
    x: -0.864745736122
    y: -2.59414482117
    z: 0.231749862432
  orientation: 
    x: 0.296563749663
    y: -0.671334411705
    z: -0.247724592737
    w: -0.632449708196
---
header: 
  seq: 935
  stamp: 
    secs: 1723701034
    nsecs: 611990076
  frame_id: "map"
pose: 
  position: 
    x: -0.865523993969
    y: -2.59470200539
    z: 0.238701224327
  orientation: 
    x: 0.293748719504
    y: -0.669412641854
    z: -0.245196498323
    w: -0.636770898133
---
header: 
  seq: 936
  stamp: 
    secs: 1723701034
    nsecs: 645738580
  frame_id: "map"
pose: 
  position: 
    x: -0.867328941822
    y: -2.59610056877
    z: 0.247994095087
  orientation: 
    x: 0.290633856664
    y: -0.667300368247
    z: -0.242936584306
    w: -0.641267545401
---
header: 
  seq: 937
  stamp: 
    secs: 1723701034
    nsecs: 677112617
  frame_id: "map"
pose: 
  position: 
    x: -0.868648171425
    y: -2.59708714485
    z: 0.254096180201
  orientation: 
    x: 0.288993627761
    y: -0.66617239214
    z: -0.241844454094
    w: -0.643590279295
---
header: 
  seq: 938
  stamp: 
    secs: 1723701034
    nsecs: 711337199
  frame_id: "map"
pose: 
  position: 
    x: -0.869848430157
    y: -2.59784650803
    z: 0.259369969368
  orientation: 
    x: 0.285851137663
    y: -0.664098113917
    z: -0.239448089655
    w: -0.648018121833
---
header: 
  seq: 939
  stamp: 
    secs: 1723701034
    nsecs: 745016677
  frame_id: "map"
pose: 
  position: 
    x: -0.872865259647
    y: -2.59960246086
    z: 0.263539403677
  orientation: 
    x: 0.284496432584
    y: -0.663179502281
    z: -0.238066157712
    w: -0.650061000654
---
header: 
  seq: 940
  stamp: 
    secs: 1723701034
    nsecs: 776089010
  frame_id: "map"
pose: 
  position: 
    x: -0.876433610916
    y: -2.60089111328
    z: 0.267491906881
  orientation: 
    x: 0.28222397988
    y: -0.661990012848
    z: -0.234488522477
    w: -0.653554932248
---
header: 
  seq: 941
  stamp: 
    secs: 1723701034
    nsecs: 809740392
  frame_id: "map"
pose: 
  position: 
    x: -0.879334807396
    y: -2.60153889656
    z: 0.270056188107
  orientation: 
    x: 0.280560928458
    y: -0.662210883408
    z: -0.230327743445
    w: -0.655523822277
---
header: 
  seq: 942
  stamp: 
    secs: 1723701034
    nsecs: 846099593
  frame_id: "map"
pose: 
  position: 
    x: -0.884053707123
    y: -2.60281825066
    z: 0.274257004261
  orientation: 
    x: 0.279421678069
    y: -0.663822768556
    z: -0.226224874183
    w: -0.655808777119
---
header: 
  seq: 943
  stamp: 
    secs: 1723701034
    nsecs: 878260341
  frame_id: "map"
pose: 
  position: 
    x: -0.887289941311
    y: -2.60387587547
    z: 0.277070820332
  orientation: 
    x: 0.279020756173
    y: -0.664967919503
    z: -0.224431799733
    w: -0.655435419262
---
header: 
  seq: 944
  stamp: 
    secs: 1723701034
    nsecs: 911755494
  frame_id: "map"
pose: 
  position: 
    x: -0.890962123871
    y: -2.60523080826
    z: 0.279271602631
  orientation: 
    x: 0.278465260709
    y: -0.667709487705
    z: -0.221246024821
    w: -0.653965821874
---
header: 
  seq: 945
  stamp: 
    secs: 1723701034
    nsecs: 945768038
  frame_id: "map"
pose: 
  position: 
    x: -0.897828996181
    y: -2.60789275169
    z: 0.280900985003
  orientation: 
    x: 0.27816494334
    y: -0.670781719007
    z: -0.21815933715
    w: -0.651983676662
---
header: 
  seq: 946
  stamp: 
    secs: 1723701034
    nsecs: 977102426
  frame_id: "map"
pose: 
  position: 
    x: -0.902577161789
    y: -2.60957169533
    z: 0.28182169795
  orientation: 
    x: 0.278122585757
    y: -0.672304948259
    z: -0.216575395363
    w: -0.65096016152
---
header: 
  seq: 947
  stamp: 
    secs: 1723701035
    nsecs:  10690861
  frame_id: "map"
pose: 
  position: 
    x: -0.906819880009
    y: -2.61092042923
    z: 0.283259063959
  orientation: 
    x: 0.278073547899
    y: -0.675279398873
    z: -0.213368799908
    w: -0.648958080848
---
header: 
  seq: 948
  stamp: 
    secs: 1723701035
    nsecs:  45694633
  frame_id: "map"
pose: 
  position: 
    x: -0.913523972034
    y: -2.61361885071
    z: 0.284559428692
  orientation: 
    x: 0.278008431018
    y: -0.678343769787
    z: -0.210036564698
    w: -0.646873771676
---
header: 
  seq: 949
  stamp: 
    secs: 1723701035
    nsecs:  78153181
  frame_id: "map"
pose: 
  position: 
    x: -0.920879304409
    y: -2.61577343941
    z: 0.287125557661
  orientation: 
    x: 0.277906604232
    y: -0.679804495263
    z: -0.20826178198
    w: -0.645957309528
---
header: 
  seq: 950
  stamp: 
    secs: 1723701035
    nsecs: 109265419
  frame_id: "map"
pose: 
  position: 
    x: -0.925305306911
    y: -2.61611318588
    z: 0.289269804955
  orientation: 
    x: 0.277370664907
    y: -0.681976490954
    z: -0.204823463152
    w: -0.644996930364
---
header: 
  seq: 951
  stamp: 
    secs: 1723701035
    nsecs: 146160060
  frame_id: "map"
pose: 
  position: 
    x: -0.933110058308
    y: -2.61664032936
    z: 0.290330499411
  orientation: 
    x: 0.276081013489
    y: -0.68222435657
    z: -0.202314587701
    w: -0.6460790507
---
header: 
  seq: 952
  stamp: 
    secs: 1723701035
    nsecs: 178154594
  frame_id: "map"
pose: 
  position: 
    x: -0.93817961216
    y: -2.61577582359
    z: 0.291111290455
  orientation: 
    x: 0.275316722538
    y: -0.681762342817
    z: -0.201565406395
    w: -0.647126125931
---
header: 
  seq: 953
  stamp: 
    secs: 1723701035
    nsecs: 211639827
  frame_id: "map"
pose: 
  position: 
    x: -0.943733334541
    y: -2.61504006386
    z: 0.29209163785
  orientation: 
    x: 0.274057142897
    y: -0.680764115783
    z: -0.200687002852
    w: -0.648981999185
---
header: 
  seq: 954
  stamp: 
    secs: 1723701035
    nsecs: 246056222
  frame_id: "map"
pose: 
  position: 
    x: -0.950516283512
    y: -2.61520528793
    z: 0.292910665274
  orientation: 
    x: 0.274044288108
    y: -0.679952156747
    z: -0.200514432581
    w: -0.649891464955
---
header: 
  seq: 955
  stamp: 
    secs: 1723701035
    nsecs: 277278255
  frame_id: "map"
pose: 
  position: 
    x: -0.958608746529
    y: -2.61461687088
    z: 0.29361230135
  orientation: 
    x: 0.274529082233
    y: -0.679698495939
    z: -0.200733511899
    w: -0.649884552872
---
header: 
  seq: 956
  stamp: 
    secs: 1723701035
    nsecs: 310556858
  frame_id: "map"
pose: 
  position: 
    x: -0.964506328106
    y: -2.61458063126
    z: 0.294824123383
  orientation: 
    x: 0.276471925509
    y: -0.679509720205
    z: -0.201918702353
    w: -0.648890371936
---
header: 
  seq: 957
  stamp: 
    secs: 1723701035
    nsecs: 345046855
  frame_id: "map"
pose: 
  position: 
    x: -0.970468699932
    y: -2.6148724556
    z: 0.29741615057
  orientation: 
    x: 0.277917162018
    y: -0.679376262209
    z: -0.202999010374
    w: -0.648075167592
---
header: 
  seq: 958
  stamp: 
    secs: 1723701035
    nsecs: 376365243
  frame_id: "map"
pose: 
  position: 
    x: -0.976876020432
    y: -2.61433625221
    z: 0.30168697238
  orientation: 
    x: 0.281195091014
    y: -0.678501293634
    z: -0.206135262739
    w: -0.646586182655
---
header: 
  seq: 959
  stamp: 
    secs: 1723701035
    nsecs: 409266459
  frame_id: "map"
pose: 
  position: 
    x: -0.981385469437
    y: -2.61363935471
    z: 0.304896712303
  orientation: 
    x: 0.284651469767
    y: -0.676834132894
    z: -0.210256444806
    w: -0.645493167359
---
header: 
  seq: 960
  stamp: 
    secs: 1723701035
    nsecs: 446299248
  frame_id: "map"
pose: 
  position: 
    x: -0.988311827183
    y: -2.61312198639
    z: 0.308697789907
  orientation: 
    x: 0.288248134305
    y: -0.674881954091
    z: -0.214396550809
    w: -0.644578559673
---
header: 
  seq: 961
  stamp: 
    secs: 1723701035
    nsecs: 478178772
  frame_id: "map"
pose: 
  position: 
    x: -0.992608428001
    y: -2.6117811203
    z: 0.311236470938
  orientation: 
    x: 0.290022832728
    y: -0.673776884797
    z: -0.216474306147
    w: -0.644244082283
---
header: 
  seq: 962
  stamp: 
    secs: 1723701035
    nsecs: 512015662
  frame_id: "map"
pose: 
  position: 
    x: -0.996382236481
    y: -2.61051988602
    z: 0.313517302275
  orientation: 
    x: 0.293478684645
    y: -0.67155795859
    z: -0.220698958728
    w: -0.643562040907
---
header: 
  seq: 963
  stamp: 
    secs: 1723701035
    nsecs: 549131014
  frame_id: "map"
pose: 
  position: 
    x: -1.00315129757
    y: -2.61101770401
    z: 0.317157655954
  orientation: 
    x: 0.296795936651
    y: -0.669498368544
    z: -0.225145535539
    w: -0.642645852714
---
header: 
  seq: 964
  stamp: 
    secs: 1723701035
    nsecs: 578147736
  frame_id: "map"
pose: 
  position: 
    x: -1.00799238682
    y: -2.61159849167
    z: 0.319914489985
  orientation: 
    x: 0.29838247047
    y: -0.668488909375
    z: -0.22744017856
    w: -0.642153830404
---
header: 
  seq: 965
  stamp: 
    secs: 1723701035
    nsecs: 611546439
  frame_id: "map"
pose: 
  position: 
    x: -1.01264643669
    y: -2.61212062836
    z: 0.322803109884
  orientation: 
    x: 0.301417802206
    y: -0.666626945901
    z: -0.231948331917
    w: -0.641058475959
---
header: 
  seq: 966
  stamp: 
    secs: 1723701035
    nsecs: 645475844
  frame_id: "map"
pose: 
  position: 
    x: -1.01753866673
    y: -2.61257839203
    z: 0.326329380274
  orientation: 
    x: 0.30429674806
    y: -0.664754466789
    z: -0.236417077971
    w: -0.640009356605
---
header: 
  seq: 967
  stamp: 
    secs: 1723701035
    nsecs: 677197571
  frame_id: "map"
pose: 
  position: 
    x: -1.02323412895
    y: -2.61283111572
    z: 0.330979794264
  orientation: 
    x: 0.305576157794
    y: -0.663766207485
    z: -0.238623655151
    w: -0.639606495954
---
header: 
  seq: 968
  stamp: 
    secs: 1723701035
    nsecs: 710920378
  frame_id: "map"
pose: 
  position: 
    x: -1.02751338482
    y: -2.61315774918
    z: 0.334863781929
  orientation: 
    x: 0.307889471868
    y: -0.661643312873
    z: -0.243029792062
    w: -0.639037323838
---
header: 
  seq: 969
  stamp: 
    secs: 1723701035
    nsecs: 745216994
  frame_id: "map"
pose: 
  position: 
    x: -1.03262102604
    y: -2.61440467834
    z: 0.338877856731
  orientation: 
    x: 0.308859829298
    y: -0.660465845829
    z: -0.245174308007
    w: -0.638967950126
---
header: 
  seq: 970
  stamp: 
    secs: 1723701035
    nsecs: 776191340
  frame_id: "map"
pose: 
  position: 
    x: -1.03845751286
    y: -2.61526226997
    z: 0.344515442848
  orientation: 
    x: 0.310669151358
    y: -0.65796135365
    z: -0.249500091951
    w: -0.639000234612
---
header: 
  seq: 971
  stamp: 
    secs: 1723701035
    nsecs: 809157902
  frame_id: "map"
pose: 
  position: 
    x: -1.04283773899
    y: -2.6159286499
    z: 0.349154859781
  orientation: 
    x: 0.312214339118
    y: -0.655365023488
    z: -0.253838688537
    w: -0.639206416994
---
header: 
  seq: 972
  stamp: 
    secs: 1723701035
    nsecs: 846486443
  frame_id: "map"
pose: 
  position: 
    x: -1.04927778244
    y: -2.61709547043
    z: 0.354993402958
  orientation: 
    x: 0.313657815996
    y: -0.652767818779
    z: -0.258140511997
    w: -0.639434452518
---
header: 
  seq: 973
  stamp: 
    secs: 1723701035
    nsecs: 878208427
  frame_id: "map"
pose: 
  position: 
    x: -1.05335557461
    y: -2.61765909195
    z: 0.359405517578
  orientation: 
    x: 0.314346811602
    y: -0.651571543704
    z: -0.260261383561
    w: -0.63945649532
---
header: 
  seq: 974
  stamp: 
    secs: 1723701035
    nsecs: 909176052
  frame_id: "map"
pose: 
  position: 
    x: -1.05724525452
    y: -2.61852097511
    z: 0.363896727562
  orientation: 
    x: 0.315662530845
    y: -0.649382457466
    z: -0.264367751012
    w: -0.639350791024
---
header: 
  seq: 975
  stamp: 
    secs: 1723701035
    nsecs: 946598196
  frame_id: "map"
pose: 
  position: 
    x: -1.06274223328
    y: -2.62091851234
    z: 0.370147973299
  orientation: 
    x: 0.316884894819
    y: -0.647258319521
    z: -0.268314634787
    w: -0.639255876321
---
header: 
  seq: 976
  stamp: 
    secs: 1723701035
    nsecs: 978397717
  frame_id: "map"
pose: 
  position: 
    x: -1.06619393826
    y: -2.6223115921
    z: 0.374534517527
  orientation: 
    x: 0.317499311577
    y: -0.646203131022
    z: -0.270249470162
    w: -0.639203403495
---
header: 
  seq: 977
  stamp: 
    secs: 1723701036
    nsecs:  11758403
  frame_id: "map"
pose: 
  position: 
    x: -1.06917405128
    y: -2.62342166901
    z: 0.378486543894
  orientation: 
    x: 0.318828149027
    y: -0.6440648212
    z: -0.273986378338
    w: -0.639109247435
---
header: 
  seq: 978
  stamp: 
    secs: 1723701036
    nsecs:  45565117
  frame_id: "map"
pose: 
  position: 
    x: -1.073163867
    y: -2.62624621391
    z: 0.383259415627
  orientation: 
    x: 0.320288052639
    y: -0.642100251223
    z: -0.277367651407
    w: -0.638897501668
---
header: 
  seq: 979
  stamp: 
    secs: 1723701036
    nsecs:  76218685
  frame_id: "map"
pose: 
  position: 
    x: -1.07800996304
    y: -2.62961673737
    z: 0.389364153147
  orientation: 
    x: 0.321099874698
    y: -0.641257746258
    z: -0.278852442733
    w: -0.638689928439
---
header: 
  seq: 980
  stamp: 
    secs: 1723701036
    nsecs: 109172415
  frame_id: "map"
pose: 
  position: 
    x: -1.08122122288
    y: -2.63172841072
    z: 0.393831431866
  orientation: 
    x: 0.323072589553
    y: -0.640075959163
    z: -0.28133790561
    w: -0.63778994571
---
header: 
  seq: 981
  stamp: 
    secs: 1723701036
    nsecs: 146507997
  frame_id: "map"
pose: 
  position: 
    x: -1.08620321751
    y: -2.63648033142
    z: 0.400082498789
  orientation: 
    x: 0.325433908887
    y: -0.639559323094
    z: -0.28331871266
    w: -0.636228921271
---
header: 
  seq: 982
  stamp: 
    secs: 1723701036
    nsecs: 178236444
  frame_id: "map"
pose: 
  position: 
    x: -1.08957517147
    y: -2.6400949955
    z: 0.404949963093
  orientation: 
    x: 0.326717954774
    y: -0.639541537124
    z: -0.28415155546
    w: -0.635216532897
---
header: 
  seq: 983
  stamp: 
    secs: 1723701036
    nsecs: 212313021
  frame_id: "map"
pose: 
  position: 
    x: -1.09224879742
    y: -2.64320731163
    z: 0.409783273935
  orientation: 
    x: 0.329327750854
    y: -0.639834900263
    z: -0.285587709323
    w: -0.632925219477
---
header: 
  seq: 984
  stamp: 
    secs: 1723701036
    nsecs: 245702955
  frame_id: "map"
pose: 
  position: 
    x: -1.09555768967
    y: -2.64783549309
    z: 0.414387524128
  orientation: 
    x: 0.331779675376
    y: -0.640388467508
    z: -0.2867760924
    w: -0.630542900475
---
header: 
  seq: 985
  stamp: 
    secs: 1723701036
    nsecs: 277277990
  frame_id: "map"
pose: 
  position: 
    x: -1.09884893894
    y: -2.65328526497
    z: 0.419865787029
  orientation: 
    x: 0.332902973183
    y: -0.640680545168
    z: -0.287238011323
    w: -0.629443046853
---
header: 
  seq: 986
  stamp: 
    secs: 1723701036
    nsecs: 310900411
  frame_id: "map"
pose: 
  position: 
    x: -1.10133254528
    y: -2.65756821632
    z: 0.423726975918
  orientation: 
    x: 0.33498444798
    y: -0.641024368621
    z: -0.288105509369
    w: -0.627589396846
---
header: 
  seq: 987
  stamp: 
    secs: 1723701036
    nsecs: 345248868
  frame_id: "map"
pose: 
  position: 
    x: -1.10480093956
    y: -2.66290235519
    z: 0.427338629961
  orientation: 
    x: 0.335863325675
    y: -0.641084522711
    z: -0.288462219222
    w: -0.626893994919
---
header: 
  seq: 988
  stamp: 
    secs: 1723701036
    nsecs: 376289232
  frame_id: "map"
pose: 
  position: 
    x: -1.10841786861
    y: -2.66919875145
    z: 0.432517439127
  orientation: 
    x: 0.337370518052
    y: -0.640915492775
    z: -0.289080323828
    w: -0.625972095828
---
header: 
  seq: 989
  stamp: 
    secs: 1723701036
    nsecs: 409229457
  frame_id: "map"
pose: 
  position: 
    x: -1.1109585762
    y: -2.67407870293
    z: 0.436523914337
  orientation: 
    x: 0.338547848118
    y: -0.640610181004
    z: -0.289496429127
    w: -0.625456439673
---
header: 
  seq: 990
  stamp: 
    secs: 1723701036
    nsecs: 446100002
  frame_id: "map"
pose: 
  position: 
    x: -1.11374342442
    y: -2.67977261543
    z: 0.44027158618
  orientation: 
    x: 0.339515950692
    y: -0.64052876383
    z: -0.289409469642
    w: -0.625055254359
---
header: 
  seq: 991
  stamp: 
    secs: 1723701036
    nsecs: 478252845
  frame_id: "map"
pose: 
  position: 
    x: -1.11668610573
    y: -2.68625831604
    z: 0.445066362619
  orientation: 
    x: 0.339968934483
    y: -0.640587527073
    z: -0.289203919462
    w: -0.624843887913
---
header: 
  seq: 992
  stamp: 
    secs: 1723701036
    nsecs: 512334958
  frame_id: "map"
pose: 
  position: 
    x: -1.11830329895
    y: -2.69035816193
    z: 0.448605507612
  orientation: 
    x: 0.340727714733
    y: -0.640865306415
    z: -0.288474389124
    w: -0.624482994986
---
header: 
  seq: 993
  stamp: 
    secs: 1723701036
    nsecs: 545542711
  frame_id: "map"
pose: 
  position: 
    x: -1.12089943886
    y: -2.69651865959
    z: 0.450842380524
  orientation: 
    x: 0.341251104835
    y: -0.641164369915
    z: -0.287528403109
    w: -0.624326419444
---
header: 
  seq: 994
  stamp: 
    secs: 1723701036
    nsecs: 576238137
  frame_id: "map"
pose: 
  position: 
    x: -1.12376630306
    y: -2.70392942429
    z: 0.454356223345
  orientation: 
    x: 0.341441218732
    y: -0.64132382198
    z: -0.28705586318
    w: -0.624276169864
---
header: 
  seq: 995
  stamp: 
    secs: 1723701036
    nsecs: 609810541
  frame_id: "map"
pose: 
  position: 
    x: -1.12542867661
    y: -2.70900464058
    z: 0.457091748714
  orientation: 
    x: 0.341786938793
    y: -0.641723511081
    z: -0.286423217911
    w: -0.623966664482
---
header: 
  seq: 996
  stamp: 
    secs: 1723701036
    nsecs: 646206640
  frame_id: "map"
pose: 
  position: 
    x: -1.12781000137
    y: -2.71609640121
    z: 0.459448873997
  orientation: 
    x: 0.342091829095
    y: -0.642509381219
    z: -0.286009293712
    w: -0.623180246436
---
header: 
  seq: 997
  stamp: 
    secs: 1723701036
    nsecs: 678252888
  frame_id: "map"
pose: 
  position: 
    x: -1.13034534454
    y: -2.72462153435
    z: 0.46358448267
  orientation: 
    x: 0.342218659499
    y: -0.643056900391
    z: -0.285802226245
    w: -0.62264055604
---
header: 
  seq: 998
  stamp: 
    secs: 1723701036
    nsecs: 711696935
  frame_id: "map"
pose: 
  position: 
    x: -1.13199472427
    y: -2.73099040985
    z: 0.466601103544
  orientation: 
    x: 0.342306198503
    y: -0.644518595244
    z: -0.285165081799
    w: -0.621372072877
---
header: 
  seq: 999
  stamp: 
    secs: 1723701036
    nsecs: 745562915
  frame_id: "map"
pose: 
  position: 
    x: -1.13389492035
    y: -2.73817062378
    z: 0.469274878502
  orientation: 
    x: 0.34210835066
    y: -0.646247385213
    z: -0.284068715829
    w: -0.620186439882
---
header: 
  seq: 1000
  stamp: 
    secs: 1723701036
    nsecs: 777322659
  frame_id: "map"
pose: 
  position: 
    x: -1.13533461094
    y: -2.74643397331
    z: 0.473088562489
  orientation: 
    x: 0.341854257847
    y: -0.647105020897
    z: -0.283403512119
    w: -0.61973643798
---
header: 
  seq: 1001
  stamp: 
    secs: 1723701036
    nsecs: 810656016
  frame_id: "map"
pose: 
  position: 
    x: -1.13604140282
    y: -2.75263571739
    z: 0.475954055786
  orientation: 
    x: 0.341062213196
    y: -0.648618113832
    z: -0.281995712548
    w: -0.619233046559
---
header: 
  seq: 1002
  stamp: 
    secs: 1723701036
    nsecs: 845161405
  frame_id: "map"
pose: 
  position: 
    x: -1.13766276836
    y: -2.75984549522
    z: 0.478690743446
  orientation: 
    x: 0.340471177403
    y: -0.649216988939
    z: -0.281288509504
    w: -0.619252328742
---
header: 
  seq: 1003
  stamp: 
    secs: 1723701036
    nsecs: 876401679
  frame_id: "map"
pose: 
  position: 
    x: -1.13885307312
    y: -2.76841139793
    z: 0.482198297977
  orientation: 
    x: 0.3389832356
    y: -0.650055110632
    z: -0.279915955235
    w: -0.619811195953
---
header: 
  seq: 1004
  stamp: 
    secs: 1723701036
    nsecs: 909855710
  frame_id: "map"
pose: 
  position: 
    x: -1.13978004456
    y: -2.7751121521
    z: 0.484628587961
  orientation: 
    x: 0.337084024849
    y: -0.650448161604
    z: -0.278842980766
    w: -0.620917297845
---
header: 
  seq: 1005
  stamp: 
    secs: 1723701036
    nsecs: 946182335
  frame_id: "map"
pose: 
  position: 
    x: -1.14152002335
    y: -2.78303217888
    z: 0.486913859844
  orientation: 
    x: 0.334986439419
    y: -0.650654280767
    z: -0.277916719476
    w: -0.622250276223
---
header: 
  seq: 1006
  stamp: 
    secs: 1723701036
    nsecs: 978264841
  frame_id: "map"
pose: 
  position: 
    x: -1.14309513569
    y: -2.79260444641
    z: 0.490044146776
  orientation: 
    x: 0.333949626945
    y: -0.650735708478
    z: -0.27756152691
    w: -0.62288068771
---
header: 
  seq: 1007
  stamp: 
    secs: 1723701037
    nsecs:  11993760
  frame_id: "map"
pose: 
  position: 
    x: -1.1434417963
    y: -2.79910564423
    z: 0.492911458015
  orientation: 
    x: 0.33205555811
    y: -0.651054749585
    z: -0.276843197097
    w: -0.623878788303
---
header: 
  seq: 1008
  stamp: 
    secs: 1723701037
    nsecs:  45560819
  frame_id: "map"
pose: 
  position: 
    x: -1.14455914497
    y: -2.80757808685
    z: 0.4952942729
  orientation: 
    x: 0.330376617326
    y: -0.651622362267
    z: -0.276046737564
    w: -0.624530009796
---
header: 
  seq: 1009
  stamp: 
    secs: 1723701037
    nsecs:  77271218
  frame_id: "map"
pose: 
  position: 
    x: -1.14518558979
    y: -2.8175868988
    z: 0.49895554781
  orientation: 
    x: 0.329647424163
    y: -0.651974172548
    z: -0.275605438987
    w: -0.624743125335
---
header: 
  seq: 1010
  stamp: 
    secs: 1723701037
    nsecs: 110747363
  frame_id: "map"
pose: 
  position: 
    x: -1.14509010315
    y: -2.82429361343
    z: 0.502322554588
  orientation: 
    x: 0.328405198487
    y: -0.652728759187
    z: -0.274759541201
    w: -0.624981939916
---
header: 
  seq: 1011
  stamp: 
    secs: 1723701037
    nsecs: 145823904
  frame_id: "map"
pose: 
  position: 
    x: -1.14599013329
    y: -2.83348035812
    z: 0.50466221571
  orientation: 
    x: 0.327368818019
    y: -0.653448111061
    z: -0.273941660532
    w: -0.625133057441
---
header: 
  seq: 1012
  stamp: 
    secs: 1723701037
    nsecs: 177279192
  frame_id: "map"
pose: 
  position: 
    x: -1.1460916996
    y: -2.84457445145
    z: 0.508533537388
  orientation: 
    x: 0.326840159561
    y: -0.653768311206
    z: -0.273546881539
    w: -0.625247728479
---
header: 
  seq: 1013
  stamp: 
    secs: 1723701037
    nsecs: 213025096
  frame_id: "map"
pose: 
  position: 
    x: -1.1463997364
    y: -2.85295271873
    z: 0.511543154716
  orientation: 
    x: 0.32575581598
    y: -0.654305672987
    z: -0.272741212919
    w: -0.625603268756
---
header: 
  seq: 1014
  stamp: 
    secs: 1723701037
    nsecs: 246108046
  frame_id: "map"
pose: 
  position: 
    x: -1.14730167389
    y: -2.86251330376
    z: 0.514554858208
  orientation: 
    x: 0.324662790147
    y: -0.654729912628
    z: -0.271934332578
    w: -0.626078706281
---
header: 
  seq: 1015
  stamp: 
    secs: 1723701037
    nsecs: 279298774
  frame_id: "map"
pose: 
  position: 
    x: -1.14760541916
    y: -2.87417411804
    z: 0.519787788391
  orientation: 
    x: 0.324188943666
    y: -0.654927781545
    z: -0.271587232207
    w: -0.626268008851
---
header: 
  seq: 1016
  stamp: 
    secs: 1723701037
    nsecs: 312384060
  frame_id: "map"
pose: 
  position: 
    x: -1.14765202999
    y: -2.88311576843
    z: 0.524076461792
  orientation: 
    x: 0.323203687325
    y: -0.655450349783
    z: -0.270777443733
    w: -0.626581138862
---
header: 
  seq: 1017
  stamp: 
    secs: 1723701037
    nsecs: 345833899
  frame_id: "map"
pose: 
  position: 
    x: -1.14807248116
    y: -2.8931081295
    z: 0.52811807394
  orientation: 
    x: 0.321938417859
    y: -0.656066052019
    z: -0.26955600699
    w: -0.627114486157
---
header: 
  seq: 1018
  stamp: 
    secs: 1723701037
    nsecs: 377377253
  frame_id: "map"
pose: 
  position: 
    x: -1.14781582355
    y: -2.90488934517
    z: 0.533496141434
  orientation: 
    x: 0.321119588886
    y: -0.656382659145
    z: -0.268696042693
    w: -0.62757194805
---
header: 
  seq: 1019
  stamp: 
    secs: 1723701037
    nsecs: 411607979
  frame_id: "map"
pose: 
  position: 
    x: -1.14725244045
    y: -2.91368365288
    z: 0.537376224995
  orientation: 
    x: 0.319439784092
    y: -0.656870551064
    z: -0.266796041689
    w: -0.628728225766
---
header: 
  seq: 1020
  stamp: 
    secs: 1723701037
    nsecs: 445135645
  frame_id: "map"
pose: 
  position: 
    x: -1.14762711525
    y: -2.92323088646
    z: 0.541057765484
  orientation: 
    x: 0.318001765231
    y: -0.657116404168
    z: -0.265236060385
    w: -0.629859320739
---
header: 
  seq: 1021
  stamp: 
    secs: 1723701037
    nsecs: 476271788
  frame_id: "map"
pose: 
  position: 
    x: -1.14757049084
    y: -2.93196630478
    z: 0.54458296299
  orientation: 
    x: 0.315715066892
    y: -0.657309078486
    z: -0.262876721952
    w: -0.631794830464
---
header: 
  seq: 1022
  stamp: 
    secs: 1723701037
    nsecs: 509218189
  frame_id: "map"
pose: 
  position: 
    x: -1.14686894417
    y: -2.94268894196
    z: 0.549455046654
  orientation: 
    x: 0.312535266296
    y: -0.657392603003
    z: -0.260044264071
    w: -0.63445549779
---
header: 
  seq: 1023
  stamp: 
    secs: 1723701037
    nsecs: 546257218
  frame_id: "map"
pose: 
  position: 
    x: -1.14731919765
    y: -2.95315432549
    z: 0.552666246891
  orientation: 
    x: 0.309674833444
    y: -0.657265245763
    z: -0.258320816215
    w: -0.636690102624
---
header: 
  seq: 1024
  stamp: 
    secs: 1723701037
    nsecs: 578693110
  frame_id: "map"
pose: 
  position: 
    x: -1.1469014883
    y: -2.96635627747
    z: 0.557348251343
  orientation: 
    x: 0.308292796135
    y: -0.657144073574
    z: -0.257884259158
    w: -0.637662177538
---
header: 
  seq: 1025
  stamp: 
    secs: 1723701037
    nsecs: 611757914
  frame_id: "map"
pose: 
  position: 
    x: -1.14610898495
    y: -2.97657561302
    z: 0.561099767685
  orientation: 
    x: 0.305626312543
    y: -0.657046061078
    z: -0.257358666884
    w: -0.639257035359
---
header: 
  seq: 1026
  stamp: 
    secs: 1723701037
    nsecs: 645809627
  frame_id: "map"
pose: 
  position: 
    x: -1.14632332325
    y: -2.98718237877
    z: 0.563971936703
  orientation: 
    x: 0.303506452504
    y: -0.657163777226
    z: -0.256602636715
    w: -0.640448863942
---
header: 
  seq: 1027
  stamp: 
    secs: 1723701037
    nsecs: 677292084
  frame_id: "map"
pose: 
  position: 
    x: -1.14583230019
    y: -2.99954295158
