header: 
  seq: 0
  stamp: 
    secs: 1723692843
    nsecs: 315035028
  frame_id: "map"
pose: 
  position: 
    x: 0.75931507349
    y: -2.75476622581
    z: -6.06024837494
  orientation: 
    x: 0.0234072664791
    y: 0.00820888109837
    z: -0.997618601651
    w: -0.0643585748509
---
header: 
  seq: 1
  stamp: 
    secs: 1723692843
    nsecs: 346839484
  frame_id: "map"
pose: 
  position: 
    x: 0.759325385094
    y: -2.7547223568
    z: -6.06101226807
  orientation: 
    x: 0.0233796385613
    y: 0.00815913003643
    z: -0.997619107413
    w: -0.0643674256891
---
header: 
  seq: 2
  stamp: 
    secs: 1723692843
    nsecs: 380360679
  frame_id: "map"
pose: 
  position: 
    x: 0.759342193604
    y: -2.75469255447
    z: -6.06181955338
  orientation: 
    x: 0.0233435542736
    y: 0.00815949223591
    z: -0.997620287525
    w: -0.0643597549627
---
header: 
  seq: 3
  stamp: 
    secs: 1723692843
    nsecs: 414038809
  frame_id: "map"
pose: 
  position: 
    x: 0.759388029575
    y: -2.75468230247
    z: -6.06262350082
  orientation: 
    x: 0.0233402681365
    y: 0.00817220609618
    z: -0.997620498259
    w: -0.0643583641167
---
header: 
  seq: 4
  stamp: 
    secs: 1723692843
    nsecs: 447298746
  frame_id: "map"
pose: 
  position: 
    x: 0.759389042854
    y: -2.7546441555
    z: -6.06378889084
  orientation: 
    x: 0.0233753336559
    y: 0.0082311807325
    z: -0.997618643798
    w: -0.0643652761998
---
header: 
  seq: 5
  stamp: 
    secs: 1723692843
    nsecs: 480215886
  frame_id: "map"
pose: 
  position: 
    x: 0.759406864643
    y: -2.75461816788
    z: -6.06475019455
  orientation: 
    x: 0.0233922964453
    y: 0.00824653930752
    z: -0.997618938826
    w: -0.0643525899984
---
header: 
  seq: 6
  stamp: 
    secs: 1723692843
    nsecs: 512431782
  frame_id: "map"
pose: 
  position: 
    x: 0.759487569332
    y: -2.75457262993
    z: -6.06567239761
  orientation: 
    x: 0.0233708660899
    y: 0.00820475729266
    z: -0.997618770239
    w: -0.064368858682
---
header: 
  seq: 7
  stamp: 
    secs: 1723692843
    nsecs: 547405323
  frame_id: "map"
pose: 
  position: 
    x: 0.759570777416
    y: -2.75455141068
    z: -6.0662856102
  orientation: 
    x: 0.0233987673036
    y: 0.00814348104328
    z: -0.997619697469
    w: -0.0643533486417
---
header: 
  seq: 8
  stamp: 
    secs: 1723692843
    nsecs: 581281477
  frame_id: "map"
pose: 
  position: 
    x: 0.759674549103
    y: -2.75455331802
    z: -6.06683540344
  orientation: 
    x: 0.023423171646
    y: 0.00806809481928
    z: -0.997617210805
    w: -0.0643914072459
---
header: 
  seq: 9
  stamp: 
    secs: 1723692843
    nsecs: 614982967
  frame_id: "map"
pose: 
  position: 
    x: 0.759766161442
    y: -2.754570961
    z: -6.0674123764
  orientation: 
    x: 0.0234037887055
    y: 0.00803650114651
    z: -0.997618685945
    w: -0.0643786367508
---
header: 
  seq: 10
  stamp: 
    secs: 1723692843
    nsecs: 645415753
  frame_id: "map"
pose: 
  position: 
    x: 0.759858846664
    y: -2.75449347496
    z: -6.06760501862
  orientation: 
    x: 0.0234375200138
    y: 0.00800410273235
    z: -0.997616662896
    w: -0.0644019018112
---
header: 
  seq: 11
  stamp: 
    secs: 1723692843
    nsecs: 681332371
  frame_id: "map"
pose: 
  position: 
    x: 0.759919166565
    y: -2.75442075729
    z: -6.06759309769
  orientation: 
    x: 0.0234507883685
    y: 0.00800867039706
    z: -0.997615693519
    w: -0.0644131550197
---
header: 
  seq: 12
  stamp: 
    secs: 1723692843
    nsecs: 714988996
  frame_id: "map"
pose: 
  position: 
    x: 0.76004743576
    y: -2.75435495377
    z: -6.06752204895
  orientation: 
    x: 0.0234801502339
    y: 0.00800516035483
    z: -0.997615651372
    w: -0.0644020703986
---
header: 
  seq: 13
  stamp: 
    secs: 1723692843
    nsecs: 746857903
  frame_id: "map"
pose: 
  position: 
    x: 0.76015496254
    y: -2.7541911602
    z: -6.06737136841
  orientation: 
    x: 0.023434801542
    y: 0.00802195192269
    z: -0.997616662896
    w: -0.0644004688183
---
header: 
  seq: 14
  stamp: 
    secs: 1723692843
    nsecs: 780703687
  frame_id: "map"
pose: 
  position: 
    x: 0.760288119316
    y: -2.75407218933
    z: -6.06728982925
  orientation: 
    x: 0.0234628601479
    y: 0.00799829502833
    z: -0.997616157134
    w: -0.0644020703986
---
header: 
  seq: 15
  stamp: 
    secs: 1723692843
    nsecs: 814153296
  frame_id: "map"
pose: 
  position: 
    x: 0.760453343391
    y: -2.753947258
    z: -6.06746053696
  orientation: 
    x: 0.0234739711108
    y: 0.0079481771571
    z: -0.99761674719
    w: -0.0643962541335
---
header: 
  seq: 16
  stamp: 
    secs: 1723692843
    nsecs: 849320796
  frame_id: "map"
pose: 
  position: 
    x: 0.760834872723
    y: -2.7537715435
    z: -6.06781673431
  orientation: 
    x: 0.023498401795
    y: 0.00793415411034
    z: -0.997616367868
    w: -0.0643936831757
---
header: 
  seq: 17
  stamp: 
    secs: 1723692843
    nsecs: 879648874
  frame_id: "map"
pose: 
  position: 
    x: 0.761110723019
    y: -2.75365447998
    z: -6.06794881821
  orientation: 
    x: 0.0234822325517
    y: 0.00798316891953
    z: -0.997616114987
    w: -0.0643962962803
---
header: 
  seq: 18
  stamp: 
    secs: 1723692843
    nsecs: 913083442
  frame_id: "map"
pose: 
  position: 
    x: 0.761421263218
    y: -2.75356197357
    z: -6.06797838211
  orientation: 
    x: 0.0234769536589
    y: 0.00797873296372
    z: -0.997616241428
    w: -0.0643969284831
---
header: 
  seq: 19
  stamp: 
    secs: 1723692843
    nsecs: 946022183
  frame_id: "map"
pose: 
  position: 
    x: 0.761823952198
    y: -2.7533416748
    z: -6.06808710098
  orientation: 
    x: 0.0234757360101
    y: 0.00797205861513
    z: -0.997616831484
    w: -0.0643901006936
---
header: 
  seq: 20
  stamp: 
    secs: 1723692843
    nsecs: 981361562
  frame_id: "map"
pose: 
  position: 
    x: 0.762165546417
    y: -2.75317788124
    z: -6.06804704666
  orientation: 
    x: 0.0235153915847
    y: 0.00794299507036
    z: -0.997614007645
    w: -0.0644220058579
---
header: 
  seq: 21
  stamp: 
    secs: 1723692844
    nsecs:  15573313
  frame_id: "map"
pose: 
  position: 
    x: 0.762510299683
    y: -2.75301718712
    z: -6.06811332703
  orientation: 
    x: 0.0234950985357
    y: 0.00791127363996
    z: -0.997614639847
    w: -0.064423649585
---
header: 
  seq: 22
  stamp: 
    secs: 1723692844
    nsecs:  46223739
  frame_id: "map"
pose: 
  position: 
    x: 0.762913823128
    y: -2.75265431404
    z: -6.06828927994
  orientation: 
    x: 0.0234609095391
    y: 0.00787250117351
    z: -0.997615314197
    w: -0.064431994661
---
header: 
  seq: 23
  stamp: 
    secs: 1723692844
    nsecs:  79725478
  frame_id: "map"
pose: 
  position: 
    x: 0.763194143772
    y: -2.75239706039
    z: -6.06860542297
  orientation: 
    x: 0.0234666691693
    y: 0.00786202899874
    z: -0.99761514561
    w: -0.0644321632484
---
header: 
  seq: 24
  stamp: 
    secs: 1723692844
    nsecs: 114952053
  frame_id: "map"
pose: 
  position: 
    x: 0.763506531715
    y: -2.75214910507
    z: -6.0689496994
  orientation: 
    x: 0.0234540554078
    y: 0.00784969709428
    z: -0.997615735665
    w: -0.0644295501438
---
header: 
  seq: 25
  stamp: 
    secs: 1723692844
    nsecs: 146137220
  frame_id: "map"
pose: 
  position: 
    x: 0.763952434063
    y: -2.75197601318
    z: -6.06913137436
  orientation: 
    x: 0.0234529141502
    y: 0.00786676722648
    z: -0.997613881204
    w: -0.0644565241269
---
header: 
  seq: 26
  stamp: 
    secs: 1723692844
    nsecs: 179782037
  frame_id: "map"
pose: 
  position: 
    x: 0.764350354671
    y: -2.75187730789
    z: -6.06922864914
  orientation: 
    x: 0.0234376609423
    y: 0.00788648536613
    z: -0.997613206855
    w: -0.0644713598175
---
header: 
  seq: 27
  stamp: 
    secs: 1723692844
    nsecs: 212589284
  frame_id: "map"
pose: 
  position: 
    x: 0.764727115631
    y: -2.75177073479
    z: -6.0693192482
  orientation: 
    x: 0.0234469628835
    y: 0.00791541325074
    z: -0.997612827533
    w: -0.06447039044
---
header: 
  seq: 28
  stamp: 
    secs: 1723692844
    nsecs: 245982411
  frame_id: "map"
pose: 
  position: 
    x: 0.764831602573
    y: -2.75154948235
    z: -6.06951141357
  orientation: 
    x: 0.0234706882665
    y: 0.00788651170791
    z: -0.997612785386
    w: -0.0644643634407
---
header: 
  seq: 29
  stamp: 
    secs: 1723692844
    nsecs: 281688556
  frame_id: "map"
pose: 
  position: 
    x: 0.765066027641
    y: -2.75127315521
    z: -6.06967878342
  orientation: 
    x: 0.0234416089166
    y: 0.00783105765053
    z: -0.997613712617
    w: -0.0644692524751
---
header: 
  seq: 30
  stamp: 
    secs: 1723692844
    nsecs: 312919870
  frame_id: "map"
pose: 
  position: 
    x: 0.765245497227
    y: -2.75109291077
    z: -6.06970119476
  orientation: 
    x: 0.0234472658139
    y: 0.00782588807614
    z: -0.997614049792
    w: -0.0644620875109
---
header: 
  seq: 31
  stamp: 
    secs: 1723692844
    nsecs: 346977854
  frame_id: "map"
pose: 
  position: 
    x: 0.765421569347
    y: -2.7509598732
    z: -6.06946468353
  orientation: 
    x: 0.0234583319958
    y: 0.00781045969541
    z: -0.997614260526
    w: -0.0644566505674
---
header: 
  seq: 32
  stamp: 
    secs: 1723692844
    nsecs: 380409158
  frame_id: "map"
pose: 
  position: 
    x: 0.765565931797
    y: -2.75087380409
    z: -6.06923866272
  orientation: 
    x: 0.0234902108184
    y: 0.00783166746274
    z: -0.997614766288
    w: -0.0644339755629
---
header: 
  seq: 33
  stamp: 
    secs: 1723692844
    nsecs: 414141658
  frame_id: "map"
pose: 
  position: 
    x: 0.765771448612
    y: -2.7507815361
    z: -6.06901025772
  orientation: 
    x: 0.0234761416735
    y: 0.00784577348611
    z: -0.997615482784
    w: -0.0644271899203
---
header: 
  seq: 34
  stamp: 
    secs: 1723692844
    nsecs: 446071207
  frame_id: "map"
pose: 
  position: 
    x: 0.765856206417
    y: -2.75054144859
    z: -6.06795501709
  orientation: 
    x: 0.0234722733831
    y: 0.00782950875385
    z: -0.997616578602
    w: -0.0644113427053
---
header: 
  seq: 35
  stamp: 
    secs: 1723692844
    nsecs: 479814267
  frame_id: "map"
pose: 
  position: 
    x: 0.765994250774
    y: -2.75034546852
    z: -6.0672454834
  orientation: 
    x: 0.0234583431911
    y: 0.00784479291333
    z: -0.997617210805
    w: -0.0644056528807
---
header: 
  seq: 36
  stamp: 
    secs: 1723692844
    nsecs: 513124543
  frame_id: "map"
pose: 
  position: 
    x: 0.766132235527
    y: -2.75016784668
    z: -6.06667852402
  orientation: 
    x: 0.0234494956456
    y: 0.0078502950527
    z: -0.997618264476
    w: -0.0643926295045
---
header: 
  seq: 37
  stamp: 
    secs: 1723692844
    nsecs: 546190776
  frame_id: "map"
pose: 
  position: 
    x: 0.765811264515
    y: -2.74988007545
    z: -6.06588315964
  orientation: 
    x: 0.0234456971609
    y: 0.00782291540623
    z: -0.997617758714
    w: -0.0644053578528
---
header: 
  seq: 38
  stamp: 
    secs: 1723692844
    nsecs: 579932877
  frame_id: "map"
pose: 
  position: 
    x: 0.765580832958
    y: -2.74968242645
    z: -6.06536054611
  orientation: 
    x: 0.0234406810274
    y: 0.00782313470155
    z: -0.997618390917
    w: -0.0643968863362
---
header: 
  seq: 39
  stamp: 
    secs: 1723692844
    nsecs: 612599127
  frame_id: "map"
pose: 
  position: 
    x: 0.76542121172
    y: -2.74948525429
    z: -6.06481695175
  orientation: 
    x: 0.0234555661089
    y: 0.00782718672591
    z: -0.99761834877
    w: -0.0643920394486
---
header: 
  seq: 40
  stamp: 
    secs: 1723692844
    nsecs: 649984027
  frame_id: "map"
pose: 
  position: 
    x: 0.76535141468
    y: -2.74950838089
    z: -6.06459283829
  orientation: 
    x: 0.0234504347301
    y: 0.00787120384083
    z: -0.997619276001
    w: -0.0643729890731
---
header: 
  seq: 41
  stamp: 
    secs: 1723692844
    nsecs: 679743442
  frame_id: "map"
pose: 
  position: 
    x: 0.765369772911
    y: -2.74949979782
    z: -6.0646033287
  orientation: 
    x: 0.0234788502671
    y: 0.00789015082486
    z: -0.99761914956
    w: -0.0643631688574
---
header: 
  seq: 42
  stamp: 
    secs: 1723692844
    nsecs: 713209595
  frame_id: "map"
pose: 
  position: 
    x: 0.765293955803
    y: -2.74947786331
    z: -6.06465911865
  orientation: 
    x: 0.0234833882973
    y: 0.00788117420468
    z: -0.997619992497
    w: -0.0643493446911
---
header: 
  seq: 43
  stamp: 
    secs: 1723692844
    nsecs: 745092198
  frame_id: "map"
pose: 
  position: 
    x: 0.765108525753
    y: -2.74942994118
    z: -6.06477737427
  orientation: 
    x: 0.0235320942491
    y: 0.00784070796175
    z: -0.997619866057
    w: -0.0643396087691
---
header: 
  seq: 44
  stamp: 
    secs: 1723692844
    nsecs: 781384127
  frame_id: "map"
pose: 
  position: 
    x: 0.764908373356
    y: -2.74937343597
    z: -6.06494855881
  orientation: 
    x: 0.0235097241507
    y: 0.00781827859435
    z: -0.9976206247
    w: -0.0643386815384
---
header: 
  seq: 45
  stamp: 
    secs: 1723692844
    nsecs: 815850000
  frame_id: "map"
pose: 
  position: 
    x: 0.764826536179
    y: -2.74931240082
    z: -6.06511974335
  orientation: 
    x: 0.0235016075896
    y: 0.00781270006383
    z: -0.997621130462
    w: -0.0643328652733
---
header: 
  seq: 46
  stamp: 
    secs: 1723692844
    nsecs: 856670300
  frame_id: "map"
pose: 
  position: 
    x: 0.764125943184
    y: -2.74913096428
    z: -6.06528615952
  orientation: 
    x: 0.0234902924779
    y: 0.0077979420814
    z: -0.997622816336
    w: -0.0643128876671
---
header: 
  seq: 47
  stamp: 
    secs: 1723692844
    nsecs: 880349475
  frame_id: "map"
pose: 
  position: 
    x: 0.763711631298
    y: -2.74898982048
    z: -6.06538677216
  orientation: 
    x: 0.0235271163112
    y: 0.00783675867034
    z: -0.99762142549
    w: -0.0643160486808
---
header: 
  seq: 48
  stamp: 
    secs: 1723692844
    nsecs: 914124248
  frame_id: "map"
pose: 
  position: 
    x: 0.763341963291
    y: -2.74886512756
    z: -6.06547832489
  orientation: 
    x: 0.0235227850639
    y: 0.00784482254784
    z: -0.997621720518
    w: -0.0643135620167
---
header: 
  seq: 49
  stamp: 
    secs: 1723692844
    nsecs: 945954689
  frame_id: "map"
pose: 
  position: 
    x: 0.762095987797
    y: -2.74860548973
    z: -6.06347894669
  orientation: 
    x: 0.023516378743
    y: 0.00785658151857
    z: -0.997621678371
    w: -0.0643136884573
---
header: 
  seq: 50
  stamp: 
    secs: 1723692844
    nsecs: 979818906
  frame_id: "map"
pose: 
  position: 
    x: 0.760582566261
    y: -2.74828529358
    z: -6.06094169617
  orientation: 
    x: 0.0235345229612
    y: 0.0078506783256
    z: -0.997620076791
    w: -0.0643329917139
---
header: 
  seq: 51
  stamp: 
    secs: 1723692845
    nsecs:  12530086
  frame_id: "map"
pose: 
  position: 
    x: 0.759576916695
    y: -2.74806547165
    z: -6.05913496017
  orientation: 
    x: 0.0235479875623
    y: 0.00782782287991
    z: -0.997619107413
    w: -0.064345762209
---
header: 
  seq: 52
  stamp: 
    secs: 1723692845
    nsecs:  45416504
  frame_id: "map"
pose: 
  position: 
    x: 0.757922232151
    y: -2.7477452755
    z: -6.05648231506
  orientation: 
    x: 0.0235812302305
    y: 0.00779857889394
    z: -0.99761834877
    w: -0.064349639719
---
header: 
  seq: 53
  stamp: 
    secs: 1723692845
    nsecs:  81420934
  frame_id: "map"
pose: 
  position: 
    x: 0.755915164948
    y: -2.74736070633
    z: -6.05330896378
  orientation: 
    x: 0.0235824669771
    y: 0.0078033559758
    z: -0.997616452162
    w: -0.0643764872615
---
header: 
  seq: 54
  stamp: 
    secs: 1723692845
    nsecs: 115034357
  frame_id: "map"
pose: 
  position: 
    x: 0.754551231861
    y: -2.74709916115
    z: -6.05121707916
  orientation: 
    x: 0.0236173566651
    y: 0.00780876921166
    z: -0.997615187756
    w: -0.0643832307573
---
header: 
  seq: 55
  stamp: 
    secs: 1723692845
    nsecs: 147309328
  frame_id: "map"
pose: 
  position: 
    x: 0.752424001694
    y: -2.74669337273
    z: -6.04902744293
  orientation: 
    x: 0.0236439888635
    y: 0.00781960819571
    z: -0.997612448211
    w: -0.0644149673342
---
header: 
  seq: 56
  stamp: 
    secs: 1723692845
    nsecs: 180053757
  frame_id: "map"
pose: 
  position: 
    x: 0.750869333744
    y: -2.74638915062
    z: -6.0476140976
  orientation: 
    x: 0.0236456622251
    y: 0.00780676328509
    z: -0.997611942449
    w: -0.0644250825779
---
header: 
  seq: 57
  stamp: 
    secs: 1723692845
    nsecs: 213019122
  frame_id: "map"
pose: 
  position: 
    x: 0.749442398548
    y: -2.74609661102
    z: -6.04630756378
  orientation: 
    x: 0.0236447060185
    y: 0.00781675472236
    z: -0.997612153183
    w: -0.0644193927533
---
header: 
  seq: 58
  stamp: 
    secs: 1723692845
    nsecs: 245422994
  frame_id: "map"
pose: 
  position: 
    x: 0.747588038445
    y: -2.74562740326
    z: -6.04536247253
  orientation: 
    x: 0.023633113001
    y: 0.00774268953864
    z: -0.997612532505
    w: -0.0644262626896
---
header: 
  seq: 59
  stamp: 
    secs: 1723692845
    nsecs: 281370877
  frame_id: "map"
pose: 
  position: 
    x: 0.745339095592
    y: -2.74507689476
    z: -6.0443444252
  orientation: 
    x: 0.0236464235026
    y: 0.0077686783391
    z: -0.997613881204
    w: -0.0643976028326
---
header: 
  seq: 60
  stamp: 
    secs: 1723692845
    nsecs: 315223126
  frame_id: "map"
pose: 
  position: 
    x: 0.743824481964
    y: -2.74468159676
    z: -6.0437374115
  orientation: 
    x: 0.0236454034171
    y: 0.00779445969804
    z: -0.997614892728
    w: -0.0643807440932
---
header: 
  seq: 61
  stamp: 
    secs: 1723692845
    nsecs: 347588372
  frame_id: "map"
pose: 
  position: 
    x: 0.741143882275
    y: -2.74417805672
    z: -6.0433716774
  orientation: 
    x: 0.0236597372969
    y: 0.00784378599878
    z: -0.997614555554
    w: -0.064373579129
---
header: 
  seq: 62
  stamp: 
    secs: 1723692845
    nsecs: 380469414
  frame_id: "map"
pose: 
  position: 
    x: 0.739322662354
    y: -2.74381542206
    z: -6.04313850403
  orientation: 
    x: 0.0236538630799
    y: 0.00792375700965
    z: -0.997613501882
    w: -0.0643819663518
---
header: 
  seq: 63
  stamp: 
    secs: 1723692845
    nsecs: 413797546
  frame_id: "map"
pose: 
  position: 
    x: 0.737647771835
    y: -2.74347567558
    z: -6.04295015335
  orientation: 
    x: 0.0236873125311
    y: 0.00794671584683
    z: -0.997613881204
    w: -0.0643621151862
---
header: 
  seq: 64
  stamp: 
    secs: 1723692845
    nsecs: 447003433
  frame_id: "map"
pose: 
  position: 
    x: 0.735974550247
    y: -2.74315261841
    z: -6.04307174683
  orientation: 
    x: 0.0237156200668
    y: 0.00794080936114
    z: -0.997613965498
    w: -0.0643500611875
---
header: 
  seq: 65
  stamp: 
    secs: 1723692845
    nsecs: 479775991
  frame_id: "map"
pose: 
  position: 
    x: 0.733987212181
    y: -2.74275517464
    z: -6.04334640503
  orientation: 
    x: 0.0236703747663
    y: 0.00790796181963
    z: -0.997615061316
    w: -0.064353264348
---
header: 
  seq: 66
  stamp: 
    secs: 1723692845
    nsecs: 512574662
  frame_id: "map"
pose: 
  position: 
    x: 0.732457816601
    y: -2.74239635468
    z: -6.04338884354
  orientation: 
    x: 0.0236699895178
    y: 0.00789634838723
    z: -0.99761687363
    w: -0.0643281869731
---
header: 
  seq: 67
  stamp: 
    secs: 1723692845
    nsecs: 545041384
  frame_id: "map"
pose: 
  position: 
    x: 0.730697631836
    y: -2.74194574356
    z: -6.04314184189
  orientation: 
    x: 0.0236740962014
    y: 0.00788039843925
    z: -0.997618138036
    w: -0.064308462248
---
header: 
  seq: 68
  stamp: 
    secs: 1723692845
    nsecs: 581501256
  frame_id: "map"
pose: 
  position: 
    x: 0.728559970856
    y: -2.74136781693
    z: -6.04282236099
  orientation: 
    x: 0.0236605802339
    y: 0.00789135661986
    z: -0.997617632274
    w: -0.064320431953
---
header: 
  seq: 69
  stamp: 
    secs: 1723692845
    nsecs: 615122487
  frame_id: "map"
pose: 
  position: 
    x: 0.726999700069
    y: -2.74098825455
    z: -6.04270172119
  orientation: 
    x: 0.023670836406
    y: 0.00789992164973
    z: -0.997617927302
    w: -0.0643104431499
---
header: 
  seq: 70
  stamp: 
    secs: 1723692845
    nsecs: 647614458
  frame_id: "map"
pose: 
  position: 
    x: 0.725324571133
    y: -2.7406437397
    z: -6.04271364212
  orientation: 
    x: 0.0236405361147
    y: 0.007962535403
    z: -0.997617758714
    w: -0.0643167651772
---
header: 
  seq: 71
  stamp: 
    secs: 1723692845
    nsecs: 680454859
  frame_id: "map"
pose: 
  position: 
    x: 0.723327457905
    y: -2.74022054672
    z: -6.04266262054
  orientation: 
    x: 0.0236580724964
    y: 0.00797212842085
    z: -0.997615819959
    w: -0.0643388501258
---
header: 
  seq: 72
  stamp: 
    secs: 1723692845
    nsecs: 714248641
  frame_id: "map"
pose: 
  position: 
    x: 0.721957027912
    y: -2.73989295959
    z: -6.04245710373
  orientation: 
    x: 0.0236713178021
    y: 0.00795674679678
    z: -0.99761527205
    w: -0.0643437813071
---
header: 
  seq: 73
  stamp: 
    secs: 1723692845
    nsecs: 746171054
  frame_id: "map"
pose: 
  position: 
    x: 0.720397233963
    y: -2.73958992958
    z: -6.04208755493
  orientation: 
    x: 0.0237047323504
    y: 0.00792164374033
    z: -0.997613839057
    w: -0.0643589541726
---
header: 
  seq: 74
  stamp: 
    secs: 1723692845
    nsecs: 779993829
  frame_id: "map"
pose: 
  position: 
    x: 0.718517541885
    y: -2.73922014236
    z: -6.04155921936
  orientation: 
    x: 0.0236683253758
    y: 0.00791461311916
    z: -0.99761379691
    w: -0.064372736192
---
header: 
  seq: 75
  stamp: 
    secs: 1723692845
    nsecs: 813367371
  frame_id: "map"
pose: 
  position: 
    x: 0.717250287533
    y: -2.73898410797
    z: -6.04115104675
  orientation: 
    x: 0.0236726691354
    y: 0.00793419559865
    z: -0.997612743239
    w: -0.0643860124493
---
header: 
  seq: 76
  stamp: 
    secs: 1723692845
    nsecs: 846940441
  frame_id: "map"
pose: 
  position: 
    x: 0.715730011463
    y: -2.73866987228
    z: -6.04103374481
  orientation: 
    x: 0.0236510780952
    y: 0.00793039843101
    z: -0.997612616799
    w: -0.0643972656579
---
header: 
  seq: 77
  stamp: 
    secs: 1723692845
    nsecs: 878803619
  frame_id: "map"
pose: 
  position: 
    x: 0.713913917542
    y: -2.73827886581
    z: -6.04096698761
  orientation: 
    x: 0.0236759967608
    y: 0.007958044788
    z: -0.997610214428
    w: -0.0644205728651
---
header: 
  seq: 78
  stamp: 
    secs: 1723692845
    nsecs: 915123389
  frame_id: "map"
pose: 
  position: 
    x: 0.712680757046
    y: -2.73799419403
    z: -6.04091072083
  orientation: 
    x: 0.0236803464473
    y: 0.00795476984617
    z: -0.9976099194
    w: -0.0644249982842
---
header: 
  seq: 79
  stamp: 
    secs: 1723692845
    nsecs: 947097612
  frame_id: "map"
pose: 
  position: 
    x: 0.71137213707
    y: -2.73787140846
    z: -6.04104566574
  orientation: 
    x: 0.0236998294866
    y: 0.00796253737864
    z: -0.99760819138
    w: -0.0644429106948
---
header: 
  seq: 80
  stamp: 
    secs: 1723692845
    nsecs: 980645784
  frame_id: "map"
pose: 
  position: 
    x: 0.709755778313
    y: -2.7376999855
    z: -6.04105234146
  orientation: 
    x: 0.0237091795015
    y: 0.00795105631369
    z: -0.997607938498
    w: -0.0644449337435
---
header: 
  seq: 81
  stamp: 
    secs: 1723692846
    nsecs:  13692817
  frame_id: "map"
pose: 
  position: 
    x: 0.708679080009
    y: -2.73759317398
    z: -6.04108953476
  orientation: 
    x: 0.0237238894101
    y: 0.00797762397477
    z: -0.997607011268
    w: -0.0644513400645
---
header: 
  seq: 82
  stamp: 
    secs: 1723692846
    nsecs:  46189492
  frame_id: "map"
pose: 
  position: 
    x: 0.707462191582
    y: -2.73731803894
    z: -6.04106235504
  orientation: 
    x: 0.0237268824949
    y: 0.00800568784898
    z: -0.997604946072
    w: -0.0644783561944
---
header: 
  seq: 83
  stamp: 
    secs: 1723692846
    nsecs:  79968074
  frame_id: "map"
pose: 
  position: 
    x: 0.706021785736
    y: -2.73697400093
    z: -6.04074382782
  orientation: 
    x: 0.0237112374531
    y: 0.00805017187195
    z: -0.997604524604
    w: -0.0644858583334
---
header: 
  seq: 84
  stamp: 
    secs: 1723692846
    nsecs: 112754713
  frame_id: "map"
pose: 
  position: 
    x: 0.705361604691
    y: -2.73680377007
    z: -6.0405960083
  orientation: 
    x: 0.0237147929349
    y: 0.00805841487355
    z: -0.997604018842
    w: -0.0644899044309
---
header: 
  seq: 85
  stamp: 
    secs: 1723692846
    nsecs: 145052532
  frame_id: "map"
pose: 
  position: 
    x: 0.704035043716
    y: -2.73665595055
    z: -6.04037714005
  orientation: 
    x: 0.0236793079226
    y: 0.00797236681396
    z: -0.997607053415
    w: -0.0644664707831
---
header: 
  seq: 86
  stamp: 
    secs: 1723692846
    nsecs: 181609623
  frame_id: "map"
pose: 
  position: 
    x: 0.702860355377
    y: -2.73659539223
    z: -6.04009628296
  orientation: 
    x: 0.0236275239338
    y: 0.00790489892912
    z: -0.997608064939
    w: -0.0644788619566
---
header: 
  seq: 87
  stamp: 
    secs: 1723692846
    nsecs: 215067776
  frame_id: "map"
pose: 
  position: 
    x: 0.702051281929
    y: -2.73653936386
    z: -6.03989219666
  orientation: 
    x: 0.0236083128734
    y: 0.00788896742038
    z: -0.997607306296
    w: -0.0644988395628
---
header: 
  seq: 88
  stamp: 
    secs: 1723692846
    nsecs: 247081072
  frame_id: "map"
pose: 
  position: 
    x: 0.701142668724
    y: -2.73663902283
    z: -6.04013442993
  orientation: 
    x: 0.0235863313162
    y: 0.00793530195342
    z: -0.997607812058
    w: -0.0644933604725
---
header: 
  seq: 89
  stamp: 
    secs: 1723692846
    nsecs: 280654206
  frame_id: "map"
pose: 
  position: 
    x: 0.700005292892
    y: -2.73675060272
    z: -6.04041290283
  orientation: 
    x: 0.0235508087669
    y: 0.00798590517196
    z: -0.997609666519
    w: -0.064472624223
---
header: 
  seq: 90
  stamp: 
    secs: 1723692846
    nsecs: 314119047
  frame_id: "map"
pose: 
  position: 
    x: 0.69924134016
    y: -2.73682570457
    z: -6.04062414169
  orientation: 
    x: 0.023560605275
    y: 0.00798345011803
    z: -0.997610214428
    w: -0.064460106609
---
header: 
  seq: 91
  stamp: 
    secs: 1723692846
    nsecs: 346609258
  frame_id: "map"
pose: 
  position: 
    x: 0.698353588581
    y: -2.73659086227
    z: -6.04079771042
  orientation: 
    x: 0.0235611979651
    y: 0.00793526573347
    z: -0.997611141659
    w: -0.0644507500086
---
header: 
  seq: 92
  stamp: 
    secs: 1723692846
    nsecs: 379756391
  frame_id: "map"
pose: 
  position: 
    x: 0.697346746922
    y: -2.73629403114
    z: -6.04098367691
  orientation: 
    x: 0.0235429727458
    y: 0.00786091539998
    z: -0.997613628323
    w: -0.0644287072068
---
header: 
  seq: 93
  stamp: 
    secs: 1723692846
    nsecs: 412691740
  frame_id: "map"
pose: 
  position: 
    x: 0.696546137333
    y: -2.73608875275
    z: -6.04093074799
  orientation: 
    x: 0.0235472605291
    y: 0.0078279677597
    z: -0.997614597701
    w: -0.0644150094811
---
header: 
  seq: 94
  stamp: 
    secs: 1723692846
    nsecs: 445656209
  frame_id: "map"
pose: 
  position: 
    x: 0.695605456829
    y: -2.73596739769
    z: -6.04075336456
  orientation: 
    x: 0.0235247159164
    y: 0.00780733556026
    z: -0.997616915777
    w: -0.0643916179802
---
header: 
  seq: 95
  stamp: 
    secs: 1723692846
    nsecs: 481503289
  frame_id: "map"
pose: 
  position: 
    x: 0.694417178631
    y: -2.73581504822
    z: -6.04047250748
  orientation: 
    x: 0.0235179315909
    y: 0.00783611527235
    z: -0.997615524931
    w: -0.0644123120828
---
header: 
  seq: 96
  stamp: 
    secs: 1723692846
    nsecs: 515713631
  frame_id: "map"
pose: 
  position: 
    x: 0.693578839302
    y: -2.73574137688
    z: -6.04022026062
  orientation: 
    x: 0.0235293639236
    y: 0.00785151994548
    z: -0.997613501882
    w: -0.0644356614368
---
header: 
  seq: 97
  stamp: 
    secs: 1723692846
    nsecs: 547195227
  frame_id: "map"
pose: 
  position: 
    x: 0.692695021629
    y: -2.73570537567
    z: -6.04000520706
  orientation: 
    x: 0.0235235779515
    y: 0.00793070992257
    z: -0.997614176232
    w: -0.0644191398722
---
header: 
  seq: 98
  stamp: 
    secs: 1723692846
    nsecs: 580520478
  frame_id: "map"
pose: 
  position: 
    x: 0.691672801971
    y: -2.73566174507
    z: -6.03973674774
  orientation: 
    x: 0.0235404413007
    y: 0.00797839710602
    z: -0.997612363918
    w: -0.0644340177098
---
header: 
  seq: 99
  stamp: 
    secs: 1723692846
    nsecs: 613754527
  frame_id: "map"
pose: 
  position: 
    x: 0.690958142281
    y: -2.73561120033
    z: -6.03956413269
  orientation: 
    x: 0.023527195995
    y: 0.00799682120572
    z: -0.997612827533
    w: -0.0644304352276
---
header: 
  seq: 100
  stamp: 
    secs: 1723692846
    nsecs: 646774262
  frame_id: "map"
pose: 
  position: 
    x: 0.690120756626
    y: -2.73554992676
    z: -6.0399723053
  orientation: 
    x: 0.0235487132783
    y: 0.00796867369636
    z: -0.9976112681
    w: -0.0644506235681
---
header: 
  seq: 101
  stamp: 
    secs: 1723692846
    nsecs: 679851313
  frame_id: "map"
pose: 
  position: 
    x: 0.689315259457
    y: -2.73547458649
    z: -6.040371418
  orientation: 
    x: 0.0235213968521
    y: 0.00793114719612
    z: -0.997612743239
    w: -0.0644411405272
---
header: 
  seq: 102
  stamp: 
    secs: 1723692846
    nsecs: 714336258
  frame_id: "map"
pose: 
  position: 
    x: 0.68838596344
    y: -2.73538899422
    z: -6.0408873558
  orientation: 
    x: 0.0235342364944
    y: 0.00794192559408
    z: -0.99761367047
    w: -0.0644224273264
---
header: 
  seq: 103
  stamp: 
    secs: 1723692846
    nsecs: 745992036
  frame_id: "map"
pose: 
  position: 
    x: 0.68765604496
    y: -2.73537015915
    z: -6.04136037827
  orientation: 
    x: 0.0235032868781
    y: 0.00800110569629
    z: -0.997613923351
    w: -0.064421162921
---
header: 
  seq: 104
  stamp: 
    secs: 1723692846
    nsecs: 779853597
  frame_id: "map"
pose: 
  position: 
    x: 0.687000513077
    y: -2.73536014557
    z: -6.0417842865
  orientation: 
    x: 0.023489265807
    y: 0.00807101612271
    z: -0.997614007645
    w: -0.0644163581802
---
header: 
  seq: 105
  stamp: 
    secs: 1723692846
    nsecs: 813509646
  frame_id: "map"
pose: 
  position: 
    x: 0.686176896095
    y: -2.73531961441
    z: -6.0423283577
  orientation: 
    x: 0.0234720284045
    y: 0.00807667631276
    z: -0.997614429113
    w: -0.0644157681244
---
header: 
  seq: 106
  stamp: 
    secs: 1723692846
    nsecs: 850442464
  frame_id: "map"
pose: 
  position: 
    x: 0.685488164425
    y: -2.73529219627
    z: -6.04274988174
  orientation: 
    x: 0.0235015035396
    y: 0.0080993104875
    z: -0.997613417589
    w: -0.0644169482361
---
header: 
  seq: 107
  stamp: 
    secs: 1723692846
    nsecs: 881865657
  frame_id: "map"
pose: 
  position: 
    x: 0.68466091156
    y: -2.73525094986
    z: -6.04325485229
  orientation: 
    x: 0.0234606467798
    y: 0.00803859334241
    z: -0.997614977022
    w: -0.0644147987468
---
header: 
  seq: 108
  stamp: 
    secs: 1723692846
    nsecs: 915774164
  frame_id: "map"
pose: 
  position: 
    x: 0.684122920036
    y: -2.73522186279
    z: -6.04360961914
  orientation: 
    x: 0.0234552197145
    y: 0.00801894039866
    z: -0.997615819959
    w: -0.0644067908456
---
header: 
  seq: 109
  stamp: 
    secs: 1723692846
    nsecs: 945042424
  frame_id: "map"
pose: 
  position: 
    x: 0.683429419994
    y: -2.73547339439
    z: -6.04370117188
  orientation: 
    x: 0.0234463695349
    y: 0.00799043003127
    z: -0.997617632274
    w: -0.0643856752745
---
header: 
  seq: 110
  stamp: 
    secs: 1723692846
    nsecs: 981634300
  frame_id: "map"
pose: 
  position: 
    x: 0.682616531849
    y: -2.73581695557
    z: -6.04373025894
  orientation: 
    x: 0.0234424083896
    y: 0.00798193414858
    z: -0.997617800861
    w: -0.0643866025052
---
header: 
  seq: 111
  stamp: 
    secs: 1723692847
    nsecs:  15180297
  frame_id: "map"
pose: 
  position: 
    x: 0.682030797005
    y: -2.73606157303
    z: -6.04368877411
  orientation: 
    x: 0.0234343879761
    y: 0.00799490945102
    z: -0.997617716567
    w: -0.0643890470224
---
header: 
  seq: 112
  stamp: 
    secs: 1723692847
    nsecs:  48083356
  frame_id: "map"
pose: 
  position: 
    x: 0.68173378706
    y: -2.7358789444
    z: -6.04376554489
  orientation: 
    x: 0.0234183609784
    y: 0.00803602962864
    z: -0.997616325721
    w: -0.0644098254187
---
header: 
  seq: 113
  stamp: 
    secs: 1723692847
    nsecs:  80776231
  frame_id: "map"
pose: 
  position: 
    x: 0.681384861469
    y: -2.73566055298
    z: -6.04381418228
  orientation: 
    x: 0.0234318631164
    y: 0.00805988540344
    z: -0.997614260526
    w: -0.0644360829053
---
header: 
  seq: 114
  stamp: 
    secs: 1723692847
    nsecs: 113702171
  frame_id: "map"
pose: 
  position: 
    x: 0.681185305119
    y: -2.73551130295
    z: -6.04382658005
  orientation: 
    x: 0.0234254041119
    y: 0.00803162594151
    z: -0.997614555554
    w: -0.0644357878774
---
header: 
  seq: 115
  stamp: 
    secs: 1723692847
    nsecs: 146124603
  frame_id: "map"
pose: 
  position: 
    x: 0.680749952793
    y: -2.73513817787
    z: -6.04252815247
  orientation: 
    x: 0.0233816635857
    y: 0.00801125584279
    z: -0.997615061316
    w: -0.0644455659462
---
header: 
  seq: 116
  stamp: 
    secs: 1723692847
    nsecs: 180082072
  frame_id: "map"
pose: 
  position: 
    x: 0.680254876614
    y: -2.73469543457
    z: -6.04071378708
  orientation: 
    x: 0.023417149915
    y: 0.0080337135276
    z: -0.997614681994
    w: -0.0644375158982
---
header: 
  seq: 117
  stamp: 
    secs: 1723692847
    nsecs: 215605907
  frame_id: "map"
pose: 
  position: 
    x: 0.679636418819
    y: -2.73417854309
    z: -6.03871154785
  orientation: 
    x: 0.0234015312149
    y: 0.0080667915597
    z: -0.997614429113
    w: -0.0644429949885
---
header: 
  seq: 118
  stamp: 
    secs: 1723692847
    nsecs: 251891852
  frame_id: "map"
pose: 
  position: 
    x: 0.679003596306
    y: -2.73373937607
    z: -6.03712463379
  orientation: 
    x: 0.0234135713842
    y: 0.00813919523563
    z: -0.997613333295
    w: -0.0644454395057
---
header: 
  seq: 119
  stamp: 
    secs: 1723692847
    nsecs: 280562872
  frame_id: "map"
pose: 
  position: 
    x: 0.678420066833
    y: -2.73333311081
    z: -6.03562402725
  orientation: 
    x: 0.0234384979524
    y: 0.00818931903376
    z: -0.997613333295
    w: -0.0644310252835
---
header: 
  seq: 120
  stamp: 
    secs: 1723692847
    nsecs: 314533941
  frame_id: "map"
pose: 
  position: 
    x: 0.677799999714
    y: -2.73275780678
    z: -6.03402805328
  orientation: 
    x: 0.0234373257431
    y: 0.00819697132095
    z: -0.997613375442
    w: -0.0644292972627
---
header: 
  seq: 121
  stamp: 
    secs: 1723692847
    nsecs: 346342717
  frame_id: "map"
pose: 
  position: 
    x: 0.677582979202
    y: -2.7322165966
    z: -6.03311443329
  orientation: 
    x: 0.0234391387162
    y: 0.00816778660399
    z: -0.997614513407
    w: -0.0644145880126
---
header: 
  seq: 122
  stamp: 
    secs: 1723692847
    nsecs: 379924235
  frame_id: "map"
pose: 
  position: 
    x: 0.677379488945
    y: -2.73171782494
    z: -6.03220844269
  orientation: 
    x: 0.0233990465265
    y: 0.00814676586329
    z: -0.997615693519
    w: -0.0644137450756
---
header: 
  seq: 123
  stamp: 
    secs: 1723692847
    nsecs: 412701369
  frame_id: "map"
pose: 
  position: 
    x: 0.677047073841
    y: -2.73109173775
    z: -6.03122663498
  orientation: 
    x: 0.0233916912429
    y: 0.00814574446076
    z: -0.997615314197
    w: -0.0644216265363
---
header: 
  seq: 124
  stamp: 
    secs: 1723692847
    nsecs: 445733938
  frame_id: "map"
pose: 
  position: 
    x: 0.676603615284
    y: -2.73060584068
    z: -6.03068208694
  orientation: 
    x: 0.0234087580824
    y: 0.00816583797079
    z: -0.997614597701
    w: -0.0644241132004
---
header: 
  seq: 125
  stamp: 
    secs: 1723692847
    nsecs: 481645532
  frame_id: "map"
pose: 
  position: 
    x: 0.676100075245
    y: -2.73003482819
    z: -6.03010892868
  orientation: 
    x: 0.0234322404624
    y: 0.00818501610395
    z: -0.997614134085
    w: -0.0644201935434
---
header: 
  seq: 126
  stamp: 
    secs: 1723692847
    nsecs: 515765663
  frame_id: "map"
pose: 
  position: 
    x: 0.67575186491
    y: -2.72963142395
    z: -6.02961826324
  orientation: 
    x: 0.0234168483017
    y: 0.00817639773197
    z: -0.997614302673
    w: -0.0644249982842
---
header: 
  seq: 127
  stamp: 
    secs: 1723692847
    nsecs: 547675531
  frame_id: "map"
pose: 
  position: 
    x: 0.675472855568
    y: -2.72890496254
    z: -6.02936697006
  orientation: 
    x: 0.0234558341365
    y: 0.00815475532526
    z: -0.997611816009
    w: -0.0644531102321
---
header: 
  seq: 128
  stamp: 
    secs: 1723692847
    nsecs: 580671586
  frame_id: "map"
pose: 
  position: 
    x: 0.675220906734
    y: -2.72823786736
    z: -6.02933692932
  orientation: 
    x: 0.0234434363776
    y: 0.00809555612526
    z: -0.997613881204
    w: -0.0644325004232
---
header: 
  seq: 129
  stamp: 
    secs: 1723692847
    nsecs: 613835743
  frame_id: "map"
pose: 
  position: 
    x: 0.674944758415
    y: -2.72744226456
    z: -6.02943134308
  orientation: 
    x: 0.0234727429253
    y: 0.00806336251844
    z: -0.997612953973
    w: -0.064440339737
---
header: 
  seq: 130
  stamp: 
    secs: 1723692847
    nsecs: 646535242
  frame_id: "map"
pose: 
  position: 
    x: 0.674783945084
    y: -2.72669029236
    z: -6.02943563461
  orientation: 
    x: 0.0234655608389
    y: 0.00813900952608
    z: -0.997613586176
    w: -0.0644225959138
---
header: 
  seq: 131
  stamp: 
    secs: 1723692847
    nsecs: 680459718
  frame_id: "map"
pose: 
  position: 
    x: 0.6746571064
    y: -2.72600412369
    z: -6.02941179276
  orientation: 
    x: 0.0234480521161
    y: 0.00820036150807
    z: -0.997612953973
    w: -0.0644324161295
---
header: 
  seq: 132
  stamp: 
    secs: 1723692847
    nsecs: 713339448
  frame_id: "map"
pose: 
  position: 
    x: 0.674505650997
    y: -2.72516584396
    z: -6.02927780151
  orientation: 
    x: 0.0234523952171
    y: 0.00820644711787
    z: -0.997612785386
    w: -0.0644324161295
---
header: 
  seq: 133
  stamp: 
    secs: 1723692847
    nsecs: 745601586
  frame_id: "map"
pose: 
  position: 
    x: 0.674147188663
    y: -2.7242872715
    z: -6.02957868576
  orientation: 
    x: 0.023469527911
    y: 0.00821716558828
    z: -0.99761206889
    w: -0.064436167199
---
header: 
  seq: 134
  stamp: 
    secs: 1723692847
    nsecs: 782148725
  frame_id: "map"
pose: 
  position: 
    x: 0.673753023148
    y: -2.72319507599
    z: -6.02992343903
  orientation: 
    x: 0.0234791571488
    y: 0.00820937237258
    z: -0.99761072019
    w: -0.0644531945258
---
header: 
  seq: 135
  stamp: 
    secs: 1723692847
    nsecs: 815940811
  frame_id: "map"
pose: 
  position: 
    x: 0.673503160477
    y: -2.72237420082
    z: -6.03014230728
  orientation: 
    x: 0.0234595628155
    y: 0.00821572205872
    z: -0.997611858155
    w: -0.0644424470795
---
header: 
  seq: 136
  stamp: 
    secs: 1723692847
    nsecs: 850484735
  frame_id: "map"
pose: 
  position: 
    x: 0.67324835062
    y: -2.72144937515
    z: -6.03022384644
  orientation: 
    x: 0.0234849562918
    y: 0.00823746719837
    z: -0.997612026743
    w: -0.064428117151
---
header: 
  seq: 137
  stamp: 
    secs: 1723692847
    nsecs: 880626309
  frame_id: "map"
pose: 
  position: 
    x: 0.673009872437
    y: -2.72059988976
    z: -6.03033542633
  orientation: 
    x: 0.0234906797021
    y: 0.00823155676142
    z: -0.997610635897
    w: -0.0644477154355
---
header: 
  seq: 138
  stamp: 
    secs: 1723692847
    nsecs: 914305719
  frame_id: "map"
pose: 
  position: 
    x: 0.672685980797
    y: -2.7194685936
    z: -6.03036355972
  orientation: 
    x: 0.0235156503927
    y: 0.00820693114808
    z: -0.997610888778
    w: -0.0644376844856
---
header: 
  seq: 139
  stamp: 
    secs: 1723692847
    nsecs: 946174402
  frame_id: "map"
pose: 
  position: 
    x: 0.672412216663
    y: -2.7185254097
    z: -6.03059387207
  orientation: 
    x: 0.0235181383739
    y: 0.00817798548278
    z: -0.997609287198
    w: -0.0644655856993
---
header: 
  seq: 140
  stamp: 
    secs: 1723692847
    nsecs: 979989433
  frame_id: "map"
pose: 
  position: 
    x: 0.672176301479
    y: -2.71764779091
    z: -6.03076076508
  orientation: 
    x: 0.023520484768
    y: 0.00820884817115
    z: -0.997609455785
    w: -0.0644585893224
---
header: 
  seq: 141
  stamp: 
    secs: 1723692848
    nsecs:  12796552
  frame_id: "map"
pose: 
  position: 
    x: 0.671875178814
    y: -2.71656322479
    z: -6.03116893768
  orientation: 
    x: 0.0234881041345
    y: 0.00822979120359
    z: -0.9976112681
    w: -0.0644400868559
---
header: 
  seq: 142
  stamp: 
    secs: 1723692848
    nsecs:  45710620
  frame_id: "map"
pose: 
  position: 
    x: 0.671742975712
    y: -2.71580791473
    z: -6.03170061111
  orientation: 
    x: 0.0234614251794
    y: 0.00821284553631
    z: -0.997611773862
    w: -0.0644437957786
---
header: 
  seq: 143
  stamp: 
    secs: 1723692848
    nsecs:  81620902
  frame_id: "map"
pose: 
  position: 
    x: 0.671622633934
    y: -2.71507382393
    z: -6.0319776535
  orientation: 
    x: 0.0234453922548
    y: 0.00817221729143
    z: -0.997612658946
    w: -0.0644410562335
---
header: 
  seq: 144
  stamp: 
    secs: 1723692848
    nsecs: 115306328
  frame_id: "map"
pose: 
  position: 
    x: 0.67150914669
    y: -2.71416664124
    z: -6.03231573105
  orientation: 
    x: 0.0234564571196
    y: 0.00816487452017
    z: -0.99761367047
    w: -0.0644216686831
---
header: 
  seq: 145
  stamp: 
    secs: 1723692848
    nsecs: 147183586
  frame_id: "map"
pose: 
  position: 
    x: 0.671447217464
    y: -2.71351933479
    z: -6.03232002258
  orientation: 
    x: 0.0234501996297
    y: 0.00814850442079
    z: -0.997614218379
    w: -0.0644183390821
---
header: 
  seq: 146
  stamp: 
    secs: 1723692848
    nsecs: 180671885
  frame_id: "map"
pose: 
  position: 
    x: 0.671393215656
    y: -2.71292114258
    z: -6.03204536438
  orientation: 
    x: 0.0234592269578
    y: 0.00813992226876
    z: -0.997614260526
    w: -0.0644145880126
---
header: 
  seq: 147
  stamp: 
    secs: 1723692848
    nsecs: 216693339
  frame_id: "map"
pose: 
  position: 
    x: 0.671248137951
    y: -2.71208500862
    z: -6.03163814545
  orientation: 
    x: 0.0234585051931
    y: 0.00814420017389
    z: -0.997615019169
    w: -0.0644031240698
---
header: 
  seq: 148
  stamp: 
    secs: 1723692848
    nsecs: 247281939
  frame_id: "map"
pose: 
  position: 
    x: 0.671029806137
    y: -2.71135091782
    z: -6.03128051758
  orientation: 
    x: 0.0234815772999
    y: 0.0081852492287
    z: -0.997614639847
    w: -0.0643944839659
---
header: 
  seq: 149
  stamp: 
    secs: 1723692848
    nsecs: 280741276
  frame_id: "map"
pose: 
  position: 
    x: 0.670845091343
    y: -2.7106487751
    z: -6.03089237213
  orientation: 
    x: 0.0235039078856
    y: 0.00820784718349
    z: -0.997614681994
    w: -0.0643823878203
---
header: 
  seq: 150
  stamp: 
    secs: 1723692848
    nsecs: 313786229
  frame_id: "map"
pose: 
  position: 
    x: 0.670647442341
    y: -2.70975542068
    z: -6.03044366837
  orientation: 
    x: 0.0234974199051
    y: 0.00823244513796
    z: -0.997615904253
    w: -0.0643636324727
---
header: 
  seq: 151
  stamp: 
    secs: 1723692848
    nsecs: 346178036
  frame_id: "map"
pose: 
  position: 
    x: 0.670517921448
    y: -2.70903754234
    z: -6.03020191193
  orientation: 
    x: 0.0235275443651
    y: 0.0082412538293
    z: -0.997615229903
    w: -0.0643618623051
---
header: 
  seq: 152
  stamp: 
    secs: 1723692848
    nsecs: 379922632
  frame_id: "map"
pose: 
  position: 
    x: 0.670408785343
    y: -2.70840644836
    z: -6.02995252609
  orientation: 
    x: 0.0234902035744
    y: 0.00828402102673
    z: -0.997616620749
    w: -0.0643479116983
---
header: 
  seq: 153
  stamp: 
    secs: 1723692848
    nsecs: 414002122
  frame_id: "map"
pose: 
  position: 
    x: 0.670258939266
    y: -2.70761561394
    z: -6.02952241898
  orientation: 
    x: 0.0234856122021
    y: 0.00831006251076
    z: -0.997617252952
    w: -0.0643361527275
---
header: 
  seq: 154
  stamp: 
    secs: 1723692848
    nsecs: 445748047
  frame_id: "map"
pose: 
  position: 
    x: 0.670150876045
    y: -2.70704936981
    z: -6.02939987183
  orientation: 
    x: 0.0235299862481
    y: 0.00832981226055
    z: -0.997618854532
    w: -0.0642935001168
---
header: 
  seq: 155
  stamp: 
    secs: 1723692848
    nsecs: 481686010
  frame_id: "map"
pose: 
  position: 
    x: 0.670079171658
    y: -2.70651268959
    z: -6.02927303314
  orientation: 
    x: 0.0235142555955
    y: 0.00827876123175
    z: -0.99762142549
    w: -0.0642659782247
---
header: 
  seq: 156
  stamp: 
    secs: 1723692848
    nsecs: 515462224
  frame_id: "map"
pose: 
  position: 
    x: 0.669981360435
    y: -2.70576000214
    z: -6.02897024155
  orientation: 
    x: 0.0235332875317
    y: 0.00824892916554
    z: -0.997621172609
    w: -0.0642669054554
---
header: 
  seq: 157
  stamp: 
    secs: 1723692848
    nsecs: 547138067
  frame_id: "map"
pose: 
  position: 
    x: 0.669776260853
    y: -2.70513939857
    z: -6.0286655426
  orientation: 
    x: 0.0235394060688
    y: 0.00824972534585
    z: -0.997622184133
    w: -0.0642495409538
---
header: 
  seq: 158
  stamp: 
    secs: 1723692848
    nsecs: 580633245
  frame_id: "map"
pose: 
  position: 
    x: 0.669580638409
    y: -2.70455050468
    z: -6.02836275101
  orientation: 
    x: 0.0235339177588
    y: 0.00830294232754
    z: -0.997621720518
    w: -0.0642507632124
---
header: 
  seq: 159
  stamp: 
    secs: 1723692848
    nsecs: 614409523
  frame_id: "map"
pose: 
  position: 
    x: 0.669283509254
    y: -2.70378112793
    z: -6.02836084366
  orientation: 
    x: 0.0235297748553
    y: 0.00830436149095
    z: -0.997622184133
    w: -0.0642443990383
---
header: 
  seq: 160
  stamp: 
    secs: 1723692848
    nsecs: 646174489
  frame_id: "map"
pose: 
  position: 
    x: 0.668995380402
    y: -2.70308971405
    z: -6.0280957222
  orientation: 
    x: 0.0235533797247
    y: 0.00828014022395
    z: -0.997621383343
    w: -0.0642511846809
---
header: 
  seq: 161
  stamp: 
    secs: 1723692848
    nsecs: 679967312
  frame_id: "map"
pose: 
  position: 
    x: 0.668765664101
    y: -2.70244050026
    z: -6.02775764465
  orientation: 
    x: 0.0235617992162
    y: 0.00824203354599
    z: -0.997621846959
    w: -0.0642471807303
---
header: 
  seq: 162
  stamp: 
    secs: 1723692848
    nsecs: 713744965
  frame_id: "map"
pose: 
  position: 
    x: 0.668592453003
    y: -2.70179653168
    z: -6.02739953995
  orientation: 
    x: 0.0235198156867
    y: 0.00822840167468
    z: -0.99762222628
    w: -0.0642582653515
---
header: 
  seq: 163
  stamp: 
    secs: 1723692848
    nsecs: 747138028
  frame_id: "map"
pose: 
  position: 
    x: 0.668562412262
    y: -2.70091581345
    z: -6.02793741226
  orientation: 
    x: 0.0234949299483
    y: 0.00824360680882
    z: -0.997622352721
    w: -0.0642631965327
---
header: 
  seq: 164
  stamp: 
    secs: 1723692848
    nsecs: 780670840
  frame_id: "map"
pose: 
  position: 
    x: 0.668517649174
    y: -2.70029354095
    z: -6.02833795547
  orientation: 
    x: 0.0235074179278
    y: 0.00821345929979
    z: -0.997620413966
    w: -0.064291772096
---
header: 
  seq: 165
  stamp: 
    secs: 1723692848
    nsecs: 814594451
  frame_id: "map"
pose: 
  position: 
    x: 0.668408334255
    y: -2.69951748848
    z: -6.02857160568
  orientation: 
    x: 0.0234934027836
    y: 0.00819299305357
    z: -0.997619992497
    w: -0.0643074507237
---
header: 
  seq: 166
  stamp: 
    secs: 1723692848
    nsecs: 852262755
  frame_id: "map"
pose: 
  position: 
    x: 0.668221592903
    y: -2.69889783859
    z: -6.0283613205
  orientation: 
    x: 0.0235212256305
    y: 0.00811600590787
    z: -0.997619107413
    w: -0.0643211484494
---
header: 
  seq: 167
  stamp: 
    secs: 1723692848
    nsecs: 880000202
  frame_id: "map"
pose: 
  position: 
    x: 0.66808539629
    y: -2.69833135605
    z: -6.02817106247
  orientation: 
    x: 0.0235194818047
    y: 0.00816362657833
    z: -0.997618433064
    w: -0.0643248573721
---
header: 
  seq: 168
  stamp: 
    secs: 1723692848
    nsecs: 912826106
  frame_id: "map"
pose: 
  position: 
    x: 0.667968392372
    y: -2.69778132439
    z: -6.02795791626
  orientation: 
    x: 0.0235290333342
    y: 0.00819130652109
    z: -0.99761902312
    w: -0.0643105274436
---
header: 
  seq: 169
  stamp: 
    secs: 1723692848
    nsecs: 945281051
  frame_id: "map"
pose: 
  position: 
    x: 0.667835474014
    y: -2.69740200043
    z: -6.02785968781
  orientation: 
    x: 0.0235650478163
    y: 0.00821599140342
    z: -0.997617590127
    w: -0.0643149950096
---
header: 
  seq: 170
  stamp: 
    secs: 1723692848
    nsecs: 978877674
  frame_id: "map"
pose: 
  position: 
    x: 0.66773211956
    y: -2.69711732864
    z: -6.02778768539
  orientation: 
    x: 0.0236269878785
    y: 0.00820394267311
    z: -0.997615862106
    w: -0.0643199261908
---
header: 
  seq: 171
  stamp: 
    secs: 1723692849
    nsecs:  15280551
  frame_id: "map"
pose: 
  position: 
    x: 0.667652189732
    y: -2.69677805901
    z: -6.02772665024
  orientation: 
    x: 0.0236135634487
    y: 0.00817208821671
    z: -0.997615651372
    w: -0.0643321066301
---
header: 
  seq: 172
  stamp: 
    secs: 1723692849
    nsecs:  47490527
  frame_id: "map"
pose: 
  position: 
    x: 0.667752504349
    y: -2.69651627541
    z: -6.02804517746
  orientation: 
    x: 0.0235943431687
    y: 0.00817209743633
    z: -0.997615356344
    w: -0.0643442027756
---
header: 
  seq: 173
  stamp: 
    secs: 1723692849
    nsecs:  80644924
  frame_id: "map"
pose: 
  position: 
    x: 0.667862951756
    y: -2.69629120827
    z: -6.02832794189
  orientation: 
    x: 0.0235587929605
    y: 0.00818049190318
    z: -0.997614892728
    w: -0.0643625366547
---
header: 
  seq: 174
  stamp: 
    secs: 1723692849
    nsecs: 113799929
  frame_id: "map"
pose: 
  position: 
    x: 0.66796451807
    y: -2.69606971741
    z: -6.02852678299
  orientation: 
    x: 0.0235757346766
    y: 0.00821192423254
    z: -0.997614218379
    w: -0.0643647282908
---
header: 
  seq: 175
  stamp: 
    secs: 1723692849
    nsecs: 146197305
  frame_id: "map"
pose: 
  position: 
    x: 0.667678058147
    y: -2.69552636147
    z: -6.02877807617
  orientation: 
    x: 0.0235983853149
    y: 0.00825537038937
    z: -0.997611731715
    w: -0.0643887941413
---
header: 
  seq: 176
  stamp: 
    secs: 1723692849
    nsecs: 180092019
  frame_id: "map"
pose: 
  position: 
    x: 0.667407095432
    y: -2.69504761696
    z: -6.02889728546
  orientation: 
    x: 0.0236298551813
    y: 0.00824124658531
    z: -0.997609034317
    w: -0.0644192241659
---
header: 
  seq: 177
  stamp: 
    secs: 1723692849
    nsecs: 214559972
  frame_id: "map"
pose: 
  position: 
    x: 0.667229115963
    y: -2.69464683533
    z: -6.02891016006
  orientation: 
    x: 0.0236501344009
    y: 0.00825838059631
    z: -0.997609160757
    w: -0.0644094882439
---
header: 
  seq: 178
  stamp: 
    secs: 1723692849
    nsecs: 248172371
  frame_id: "map"
pose: 
  position: 
    x: 0.667150616646
    y: -2.69426321983
    z: -6.02846479416
  orientation: 
    x: 0.0236562819139
    y: 0.00825417710672
    z: -0.997607179855
    w: -0.0644386117162
---
header: 
  seq: 179
  stamp: 
    secs: 1723692849
    nsecs: 280722456
  frame_id: "map"
pose: 
  position: 
    x: 0.667094051838
    y: -2.6940202713
    z: -6.02812719345
  orientation: 
    x: 0.0236170570273
    y: 0.00829697393866
    z: -0.997607390589
    w: -0.064442025611
---
header: 
  seq: 180
  stamp: 
    secs: 1723692849
    nsecs: 313855253
  frame_id: "map"
pose: 
  position: 
    x: 0.667024612427
    y: -2.69378423691
    z: -6.02785539627
  orientation: 
    x: 0.0236149299286
    y: 0.00834220409256
    z: -0.997607222002
    w: -0.0644401711496
---
header: 
  seq: 181
  stamp: 
    secs: 1723692849
    nsecs: 347907093
  frame_id: "map"
pose: 
  position: 
    x: 0.667244672775
    y: -2.69352245331
    z: -6.02811336517
  orientation: 
    x: 0.0236440389129
    y: 0.00834244775403
    z: -0.997606800534
    w: -0.0644368836955
---
header: 
  seq: 182
  stamp: 
    secs: 1723692849
    nsecs: 384298194
  frame_id: "map"
pose: 
  position: 
    x: 0.667429327965
    y: -2.69330048561
    z: -6.02827787399
  orientation: 
    x: 0.0236506869197
    y: 0.00836908258665
    z: -0.997606589799
    w: -0.0644333012133
---
header: 
  seq: 183
  stamp: 
    secs: 1723692849
    nsecs: 413965894
  frame_id: "map"
pose: 
  position: 
    x: 0.66763228178
    y: -2.69308948517
    z: -6.02840471268
  orientation: 
    x: 0.023636863412
    y: 0.00839852413597
    z: -0.997607474883
    w: -0.0644217951237
---
header: 
  seq: 184
  stamp: 
    secs: 1723692849
    nsecs: 446865785
  frame_id: "map"
pose: 
  position: 
    x: 0.667667746544
    y: -2.69285774231
    z: -6.02819824219
  orientation: 
    x: 0.0236227646326
    y: 0.00837613428124
    z: -0.997608781435
    w: -0.0644107105025
---
header: 
  seq: 185
  stamp: 
    secs: 1723692849
    nsecs: 480315937
  frame_id: "map"
pose: 
  position: 
    x: 0.667674839497
    y: -2.69269585609
    z: -6.02806329727
  orientation: 
    x: 0.0236137438899
    y: 0.00828357321647
    z: -0.997610930925
    w: -0.0643906907495
---
header: 
  seq: 186
  stamp: 
    secs: 1723692849
    nsecs: 512847366
  frame_id: "map"
pose: 
  position: 
    x: 0.667687177658
    y: -2.69251823425
    z: -6.02793359756
  orientation: 
    x: 0.0236500962053
    y: 0.00822977737415
    z: -0.997611225953
    w: -0.0643799433031
---
header: 
  seq: 187
  stamp: 
    secs: 1723692849
    nsecs: 545249381
  frame_id: "map"
pose: 
  position: 
    x: 0.66783195734
    y: -2.69243764877
    z: -6.02785253525
  orientation: 
    x: 0.0236638578099
    y: 0.00828123801764
    z: -0.99761139454
    w: -0.0643656133746
---
header: 
  seq: 188
  stamp: 
    secs: 1723692849
    nsecs: 581787528
  frame_id: "map"
pose: 
  position: 
    x: 0.667947769165
    y: -2.69240736961
    z: -6.02776193619
  orientation: 
    x: 0.0236606460883
    y: 0.00840224754662
    z: -0.997611352393
    w: -0.0643519999426
---
header: 
  seq: 189
  stamp: 
    secs: 1723692849
    nsecs: 617492330
  frame_id: "map"
pose: 
  position: 
    x: 0.668048739433
    y: -2.69231319427
    z: -6.02764320374
  orientation: 
    x: 0.0236462852082
    y: 0.00845660842012
    z: -0.997611057365
    w: -0.0643544866066
---
header: 
  seq: 190
  stamp: 
    secs: 1723692849
    nsecs: 645753350
  frame_id: "map"
pose: 
  position: 
    x: 0.668056964874
    y: -2.69220900536
    z: -6.02771043777
  orientation: 
    x: 0.0236637919554
    y: 0.00857496203909
    z: -0.997611436687
    w: -0.0643263746587
---
header: 
  seq: 191
  stamp: 
    secs: 1723692849
    nsecs: 681757715
  frame_id: "map"
pose: 
  position: 
    x: 0.668101549149
    y: -2.69208431244
    z: -6.0279135704
  orientation: 
    x: 0.0236603774022
    y: 0.00849840821567
    z: -0.997614176232
    w: -0.064296239662
---
header: 
  seq: 192
  stamp: 
    secs: 1723692849
    nsecs: 714757226
  frame_id: "map"
pose: 
  position: 
    x: 0.668164789677
    y: -2.69196033478
    z: -6.02818441391
  orientation: 
    x: 0.0236514896855
    y: 0.00842220934774
    z: -0.997615019169
    w: -0.0642954810187
---
header: 
  seq: 193
  stamp: 
    secs: 1723692849
    nsecs: 747812676
  frame_id: "map"
pose: 
  position: 
    x: 0.668165028095
    y: -2.69169545174
    z: -6.02891921997
  orientation: 
    x: 0.023619101808
    y: 0.0082445267955
    z: -0.997618390917
    w: -0.0642790437478
---
header: 
  seq: 194
  stamp: 
    secs: 1723692849
    nsecs: 781768960
  frame_id: "map"
pose: 
  position: 
    x: 0.668175816536
    y: -2.69152784348
    z: -6.02939462662
  orientation: 
    x: 0.023609565425
    y: 0.00814745009103
    z: -0.997617758714
    w: -0.0643033624794
---
header: 
  seq: 195
  stamp: 
    secs: 1723692849
    nsecs: 816266674
  frame_id: "map"
pose: 
  position: 
    x: 0.668183505535
    y: -2.69137191772
    z: -6.02974033356
  orientation: 
    x: 0.0236407791176
    y: 0.00814659003191
    z: -0.997617042218
    w: -0.0643046690317
---
header: 
  seq: 196
  stamp: 
    secs: 1723692849
    nsecs: 849806847
  frame_id: "map"
pose: 
  position: 
    x: 0.66834127903
    y: -2.69138479233
    z: -6.03064632416
  orientation: 
    x: 0.0236280804039
    y: 0.00825021793714
    z: -0.99761514561
    w: -0.0643248573721
---
header: 
  seq: 197
  stamp: 
    secs: 1723692849
    nsecs: 880705475
  frame_id: "map"
pose: 
  position: 
    x: 0.668441712856
    y: -2.69138264656
    z: -6.03121232986
  orientation: 
    x: 0.0236891090405
    y: 0.00843924655271
    z: -0.997611984596
    w: -0.064326838274
---
header: 
  seq: 198
  stamp: 
    secs: 1723692849
    nsecs: 914596445
  frame_id: "map"
pose: 
  position: 
    x: 0.668553411961
    y: -2.6913869381
    z: -6.03178739548
  orientation: 
    x: 0.0236844017644
    y: 0.0085654526564
    z: -0.997612111036
    w: -0.0643101059751
---
header: 
  seq: 199
  stamp: 
    secs: 1723692849
    nsecs: 946232542
  frame_id: "map"
pose: 
  position: 
    x: 0.668650209904
    y: -2.6913895607
    z: -6.03207492828
  orientation: 
    x: 0.0236918782202
    y: 0.00859596104782
    z: -0.997612406064
    w: -0.0642980941233
---
header: 
  seq: 200
  stamp: 
    secs: 1723692849
    nsecs: 980077367
  frame_id: "map"
pose: 
  position: 
    x: 0.668732941151
    y: -2.69136095047
    z: -6.0322432518
  orientation: 
    x: 0.0236734534619
    y: 0.00849547110717
    z: -0.997614513407
    w: -0.064286208712
---
header: 
  seq: 201
  stamp: 
    secs: 1723692850
    nsecs:  13963185
  frame_id: "map"
pose: 
  position: 
    x: 0.668826460838
    y: -2.69130086899
    z: -6.03247928619
  orientation: 
    x: 0.0236674778291
    y: 0.00845101803579
    z: -0.997615609225
    w: -0.0642779479297
---
header: 
  seq: 202
  stamp: 
    secs: 1723692850
    nsecs:  46496949
  frame_id: "map"
pose: 
  position: 
    x: 0.668992817402
    y: -2.69137334824
    z: -6.03288602829
  orientation: 
    x: 0.0236859539538
    y: 0.00841987151474
    z: -0.997615524931
    w: -0.0642765149369
---
header: 
  seq: 203
  stamp: 
    secs: 1723692850
    nsecs:  80092516
  frame_id: "map"
pose: 
  position: 
    x: 0.66909122467
    y: -2.69142723083
    z: -6.03318548203
  orientation: 
    x: 0.0237251729134
    y: 0.00853052674842
    z: -0.997613375442
    w: -0.0642796759505
---
header: 
  seq: 204
  stamp: 
    secs: 1723692850
    nsecs: 113692562
  frame_id: "map"
pose: 
  position: 
    x: 0.669148981571
    y: -2.69148159027
    z: -6.03350353241
  orientation: 
    x: 0.0237247764696
    y: 0.00858012700367
    z: -0.997612321771
    w: -0.0642895804599
---
header: 
  seq: 205
  stamp: 
    secs: 1723692850
    nsecs: 146730795
  frame_id: "map"
pose: 
  position: 
    x: 0.66912817955
    y: -2.69144415855
    z: -6.03401613235
  orientation: 
    x: 0.0237303793663
    y: 0.00861695808091
    z: -0.997610509456
    w: -0.0643122133176
---
header: 
  seq: 206
  stamp: 
    secs: 1723692850
    nsecs: 180078160
  frame_id: "map"
pose: 
  position: 
    x: 0.669160664082
    y: -2.69140124321
    z: -6.03418636322
  orientation: 
    x: 0.0237309628367
    y: 0.00849049514487
    z: -0.99761059375
    w: -0.0643279762389
---
header: 
  seq: 207
  stamp: 
    secs: 1723692850
    nsecs: 212941729
  frame_id: "map"
pose: 
  position: 
    x: 0.669218957424
    y: -2.69131779671
    z: -6.03431415558
  orientation: 
    x: 0.0237324669524
