header: 
  seq: 5619
  stamp: 
    secs: 1723693504
    nsecs: 726954752
  frame_id: "map"
pose: 
  position: 
    x: -40.1733665466
    y: -11.1378955841
    z: -5.44052314758
  orientation: 
    x: -0.0236131123457
    y: 0.00390656702233
    z: -0.688603358484
    w: 0.724743074628
---
header: 
  seq: 5620
  stamp: 
    secs: 1723693504
    nsecs: 766954752
  frame_id: "map"
pose: 
  position: 
    x: -40.1728210449
    y: -11.1381998062
    z: -5.43980264664
  orientation: 
    x: -0.0235995068162
    y: 0.00390220218933
    z: -0.68868616387
    w: 0.724664905395
---
header: 
  seq: 5621
  stamp: 
    secs: 1723693504
    nsecs: 796954752
  frame_id: "map"
pose: 
  position: 
    x: -40.1726226807
    y: -11.1384963989
    z: -5.43931531906
  orientation: 
    x: -0.0235907126128
    y: 0.00391525849274
    z: -0.688827145078
    w: 0.724531089151
---
header: 
  seq: 5622
  stamp: 
    secs: 1723693504
    nsecs: 826957056
  frame_id: "map"
pose: 
  position: 
    x: -40.1722564697
    y: -11.1386680603
    z: -5.43883991241
  orientation: 
    x: -0.0235913711574
    y: 0.00392710439135
    z: -0.688946187535
    w: 0.72441786296
---
header: 
  seq: 5623
  stamp: 
    secs: 1723693504
    nsecs: 866957056
  frame_id: "map"
pose: 
  position: 
    x: -40.171459198
    y: -11.1386861801
    z: -5.4383263588
  orientation: 
    x: -0.023611939478
    y: 0.00391755220327
    z: -0.689033921468
    w: 0.724333837949
---
header: 
  seq: 5624
  stamp: 
    secs: 1723693504
    nsecs: 896957056
  frame_id: "map"
pose: 
  position: 
    x: -40.1709709167
    y: -11.1387090683
    z: -5.43793344498
  orientation: 
    x: -0.0236090655897
    y: 0.00395298716615
    z: -0.689172164449
    w: 0.724202169877
---
header: 
  seq: 5625
  stamp: 
    secs: 1723693504
    nsecs: 926959104
  frame_id: "map"
pose: 
  position: 
    x: -40.1707496643
    y: -11.1387834549
    z: -5.43766736984
  orientation: 
    x: -0.0236163569945
    y: 0.00397935001989
    z: -0.689350360007
    w: 0.724032235101
---
header: 
  seq: 5626
  stamp: 
    secs: 1723693504
    nsecs: 966959104
  frame_id: "map"
pose: 
  position: 
    x: -40.1707954407
    y: -11.1388559341
    z: -5.43754529953
  orientation: 
    x: -0.0236117866956
    y: 0.00398751070344
    z: -0.689404767637
    w: 0.723980440575
---
header: 
  seq: 5627
  stamp: 
    secs: 1723693504
    nsecs: 996959104
  frame_id: "map"
pose: 
  position: 
    x: -40.1709480286
    y: -11.1389417648
    z: -5.43736839294
  orientation: 
    x: -0.0236385855059
    y: 0.00397432005694
    z: -0.689580775511
    w: 0.723812019134
---
header: 
  seq: 5628
  stamp: 
    secs: 1723693505
    nsecs:  26960896
  frame_id: "map"
pose: 
  position: 
    x: -40.1709785461
    y: -11.1390361786
    z: -5.43731212616
  orientation: 
    x: -0.0236474317342
    y: 0.00395561410019
    z: -0.689730305944
    w: 0.723669400785
---
header: 
  seq: 5629
  stamp: 
    secs: 1723693505
    nsecs:  66960896
  frame_id: "map"
pose: 
  position: 
    x: -40.1704406738
    y: -11.1390218735
    z: -5.43709945679
  orientation: 
    x: -0.0236518571533
    y: 0.00394516168176
    z: -0.689781365534
    w: 0.723620532831
---
header: 
  seq: 5630
  stamp: 
    secs: 1723693505
    nsecs:  96960896
  frame_id: "map"
pose: 
  position: 
    x: -40.1702423096
    y: -11.1390829086
    z: -5.4370970726
  orientation: 
    x: -0.0236516207358
    y: 0.00394655977175
    z: -0.689969744824
    w: 0.723440920085
---
header: 
  seq: 5631
  stamp: 
    secs: 1723693505
    nsecs: 126959872
  frame_id: "map"
pose: 
  position: 
    x: -40.1700935364
    y: -11.1391468048
    z: -5.43690347672
  orientation: 
    x: -0.0236456951524
    y: 0.00393270531239
    z: -0.690109310162
    w: 0.723308182536
---
header: 
  seq: 5632
  stamp: 
    secs: 1723693505
    nsecs: 166959872
  frame_id: "map"
pose: 
  position: 
    x: -40.1698570251
    y: -11.1394309998
    z: -5.43665075302
  orientation: 
    x: -0.0236451531702
    y: 0.00389929800805
    z: -0.690190384893
    w: 0.723230901021
---
header: 
  seq: 5633
  stamp: 
    secs: 1723693505
    nsecs: 197959872
  frame_id: "map"
pose: 
  position: 
    x: -40.1697731018
    y: -11.1396427155
    z: -5.43652296066
  orientation: 
    x: -0.0236367909721
    y: 0.0039250484154
    z: -0.690324419774
    w: 0.723103103874
---
header: 
  seq: 5634
  stamp: 
    secs: 1723693505
    nsecs: 226962176
  frame_id: "map"
pose: 
  position: 
    x: -40.1698570251
    y: -11.1399154663
    z: -5.43631505966
  orientation: 
    x: -0.0236394211988
    y: 0.0039311162445
    z: -0.690457462887
    w: 0.72297596132
---
header: 
  seq: 5635
  stamp: 
    secs: 1723693505
    nsecs: 267962176
  frame_id: "map"
pose: 
  position: 
    x: -40.1696624756
    y: -11.1402006149
    z: -5.43532419205
  orientation: 
    x: -0.0236427804344
    y: 0.00393207442676
    z: -0.690532189249
    w: 0.722904522412
---
header: 
  seq: 5636
  stamp: 
    secs: 1723693505
    nsecs: 297962176
  frame_id: "map"
pose: 
  position: 
    x: -40.1697044373
    y: -11.1404762268
    z: -5.43474721909
  orientation: 
    x: -0.0236243892619
    y: 0.00395028384095
    z: -0.690668086494
    w: 0.722775200076
---
header: 
  seq: 5637
  stamp: 
    secs: 1723693505
    nsecs: 327963968
  frame_id: "map"
pose: 
  position: 
    x: -40.1695404053
    y: -11.1407184601
    z: -5.43397283554
  orientation: 
    x: -0.0235949602249
    y: 0.00398654330156
    z: -0.690854749618
    w: 0.722597472084
---
header: 
  seq: 5638
  stamp: 
    secs: 1723693505
    nsecs: 367963968
  frame_id: "map"
pose: 
  position: 
    x: -40.1689147949
    y: -11.1410274506
    z: -5.43267631531
  orientation: 
    x: -0.0236004913402
    y: 0.00398910438115
    z: -0.690913005782
    w: 0.722541660437
---
header: 
  seq: 5639
  stamp: 
    secs: 1723693505
    nsecs: 397963968
  frame_id: "map"
pose: 
  position: 
    x: -40.1685371399
    y: -11.1412668228
    z: -5.43170022964
  orientation: 
    x: -0.0236066921953
    y: 0.00401380506855
    z: -0.691088921459
    w: 0.722373078311
---
header: 
  seq: 5640
  stamp: 
    secs: 1723693505
    nsecs: 427964736
  frame_id: "map"
pose: 
  position: 
    x: -40.1680908203
    y: -11.1415777206
    z: -5.43071651459
  orientation: 
    x: -0.0235909701037
    y: 0.00403161079496
    z: -0.691185769649
    w: 0.722280866275
---
header: 
  seq: 5641
  stamp: 
    secs: 1723693505
    nsecs: 467964736
  frame_id: "map"
pose: 
  position: 
    x: -40.1672935486
    y: -11.1421604156
    z: -5.42945098877
  orientation: 
    x: -0.0235968963458
    y: 0.00404356008506
    z: -0.691279373848
    w: 0.722190970998
---
header: 
  seq: 5642
  stamp: 
    secs: 1723693505
    nsecs: 497964736
  frame_id: "map"
pose: 
  position: 
    x: -40.1667900085
    y: -11.1425886154
    z: -5.42850351334
  orientation: 
    x: -0.023580763981
    y: 0.00404922949473
    z: -0.69140076204
    w: 0.72207514619
---
header: 
  seq: 5643
  stamp: 
    secs: 1723693505
    nsecs: 527966784
  frame_id: "map"
pose: 
  position: 
    x: -40.1664657593
    y: -11.1430702209
    z: -5.42780637741
  orientation: 
    x: -0.0236148588058
    y: 0.00405668092583
    z: -0.691531165707
    w: 0.72194921009
---
header: 
  seq: 5644
  stamp: 
    secs: 1723693505
    nsecs: 567966784
  frame_id: "map"
pose: 
  position: 
    x: -40.1658935547
    y: -11.1436395645
    z: -5.42694664001
  orientation: 
    x: -0.0235979888711
    y: 0.00408071845892
    z: -0.69161133033
    w: 0.72187275439
---
header: 
  seq: 5645
  stamp: 
    secs: 1723693505
    nsecs: 597966784
  frame_id: "map"
pose: 
  position: 
    x: -40.1656608582
    y: -11.1441249847
    z: -5.4265165329
  orientation: 
    x: -0.0236219177444
    y: 0.004114306863
    z: -0.691760314171
    w: 0.721728996758
---
header: 
  seq: 5646
  stamp: 
    secs: 1723693505
    nsecs: 627969088
  frame_id: "map"
pose: 
  position: 
    x: -40.1654052734
    y: -11.1444664001
    z: -5.42621660233
  orientation: 
    x: -0.0236568416767
    y: 0.00409170298131
    z: -0.691938223921
    w: 0.721557493328
---
header: 
  seq: 5647
  stamp: 
    secs: 1723693505
    nsecs: 667969088
  frame_id: "map"
pose: 
  position: 
    x: -40.1651611328
    y: -11.1446809769
    z: -5.42626476288
  orientation: 
    x: -0.0236463543554
    y: 0.00410926307062
    z: -0.69198782681
    w: 0.721510166369
---
header: 
  seq: 5648
  stamp: 
    secs: 1723693505
    nsecs: 697969088
  frame_id: "map"
pose: 
  position: 
    x: -40.1650505066
    y: -11.144862175
    z: -5.42630577087
  orientation: 
    x: -0.0236475496137
    y: 0.0041187204283
    z: -0.692168601229
    w: 0.721336556914
---
header: 
  seq: 5649
  stamp: 
    secs: 1723693505
    nsecs: 727969088
  frame_id: "map"
pose: 
  position: 
    x: -40.1650733948
    y: -11.1451158524
    z: -5.42637586594
  orientation: 
    x: -0.0236554626845
    y: 0.00413845569011
    z: -0.69229152383
    w: 0.721218270467
---
header: 
  seq: 5650
  stamp: 
    secs: 1723693505
    nsecs: 767969088
  frame_id: "map"
pose: 
  position: 
    x: -40.1647911072
    y: -11.1446266174
    z: -5.42535495758
  orientation: 
    x: -0.0236765466455
    y: 0.00413988604878
    z: -0.692397735205
    w: 0.721115599427
---
header: 
  seq: 5651
  stamp: 
    secs: 1723693505
    nsecs: 797969088
  frame_id: "map"
pose: 
  position: 
    x: -40.1647453308
    y: -11.1443624496
    z: -5.42473697662
  orientation: 
    x: -0.0236442364763
    y: 0.00414795124337
    z: -0.692530495144
    w: 0.720989161516
---
header: 
  seq: 5652
  stamp: 
    secs: 1723693505
    nsecs: 828971904
  frame_id: "map"
pose: 
  position: 
    x: -40.1645507812
    y: -11.1440134048
    z: -5.42426729202
  orientation: 
    x: -0.0236161772119
    y: 0.0041705867352
    z: -0.692690612338
    w: 0.720836040698
---
header: 
  seq: 5653
  stamp: 
    secs: 1723693505
    nsecs: 868971904
  frame_id: "map"
pose: 
  position: 
    x: -40.1640205383
    y: -11.1434106827
    z: -5.42388105392
  orientation: 
    x: -0.023624642143
    y: 0.00418524461886
    z: -0.69277255108
    w: 0.720756967942
---
header: 
  seq: 5654
  stamp: 
    secs: 1723693505
    nsecs: 898971904
  frame_id: "map"
pose: 
  position: 
    x: -40.1637001038
    y: -11.1430187225
    z: -5.42362356186
  orientation: 
    x: -0.0236255489588
    y: 0.0041610121566
    z: -0.692922422639
    w: 0.720613081235
---
header: 
  seq: 5655
  stamp: 
    secs: 1723693505
    nsecs: 928974464
  frame_id: "map"
pose: 
  position: 
    x: -40.1633682251
    y: -11.1427249908
    z: -5.42351341248
  orientation: 
    x: -0.0236475476381
    y: 0.0041671096202
    z: -0.69307253786
    w: 0.720467939343
---
header: 
  seq: 5656
  stamp: 
    secs: 1723693505
    nsecs: 968974464
  frame_id: "map"
pose: 
  position: 
    x: -40.1626281738
    y: -11.1424045563
    z: -5.42340135574
  orientation: 
    x: -0.0236486131631
    y: 0.00417979977287
    z: -0.693155967546
    w: 0.720387544229
---
header: 
  seq: 5657
  stamp: 
    secs: 1723693505
    nsecs: 998974464
  frame_id: "map"
pose: 
  position: 
    x: -40.1622390747
    y: -11.1422786713
    z: -5.42353630066
  orientation: 
    x: -0.0236267448756
    y: 0.00423870987183
    z: -0.69331261948
    w: 0.720237045736
---
header: 
  seq: 5658
  stamp: 
    secs: 1723693506
    nsecs:  28974720
  frame_id: "map"
pose: 
  position: 
    x: -40.1618728638
    y: -11.1421880722
    z: -5.42320632935
  orientation: 
    x: -0.0236523003538
    y: 0.00422039838324
    z: -0.69346596552
    w: 0.720088757317
---
header: 
  seq: 5659
  stamp: 
    secs: 1723693506
    nsecs:  58974720
  frame_id: "map"
pose: 
  position: 
    x: -40.1615333557
    y: -11.1421556473
    z: -5.42235040665
  orientation: 
    x: -0.0236490800711
    y: 0.00420728939626
    z: -0.693550307949
    w: 0.720007618049
---
header: 
  seq: 5660
  stamp: 
    secs: 1723693506
    nsecs:  98974720
  frame_id: "map"
pose: 
  position: 
    x: -40.1612701416
    y: -11.142241478
    z: -5.4212884903
  orientation: 
    x: -0.0236470892911
    y: 0.00423359363955
    z: -0.693701663868
    w: 0.71986174122
---
header: 
  seq: 5661
  stamp: 
    secs: 1723693506
    nsecs: 128976256
  frame_id: "map"
pose: 
  position: 
    x: -40.1611366272
    y: -11.1423377991
    z: -5.42053318024
  orientation: 
    x: -0.023656823896
    y: 0.00424651823406
    z: -0.693850597659
    w: 0.719717780757
---
header: 
  seq: 5662
  stamp: 
    secs: 1723693506
    nsecs: 168976256
  frame_id: "map"
pose: 
  position: 
    x: -40.1606903076
    y: -11.1421318054
    z: -5.41932058334
  orientation: 
    x: -0.0236423958444
    y: 0.00424524395044
    z: -0.693912967093
    w: 0.719658108722
---
header: 
  seq: 5663
  stamp: 
    secs: 1723693506
    nsecs: 198976256
  frame_id: "map"
pose: 
  position: 
    x: -40.1604270935
    y: -11.1420249939
    z: -5.41837406158
  orientation: 
    x: -0.0236313777362
    y: 0.00423296011973
    z: -0.694060902531
    w: 0.719515989549
---
header: 
  seq: 5664
  stamp: 
    secs: 1723693506
    nsecs: 228978560
  frame_id: "map"
pose: 
  position: 
    x: -40.1602478027
    y: -11.1418657303
    z: -5.41776323318
  orientation: 
    x: -0.0236261317707
    y: 0.00422585705867
    z: -0.694202688481
    w: 0.719379345515
---
header: 
  seq: 5665
  stamp: 
    secs: 1723693506
    nsecs: 268978560
  frame_id: "map"
pose: 
  position: 
    x: -40.1599731445
    y: -11.1413383484
    z: -5.41737651825
  orientation: 
    x: -0.0236330833665
    y: 0.0042200012809
    z: -0.694271441844
    w: 0.719312868081
---
header: 
  seq: 5666
  stamp: 
    secs: 1723693506
    nsecs: 298978560
  frame_id: "map"
pose: 
  position: 
    x: -40.1599082947
    y: -11.1410551071
    z: -5.41715574265
  orientation: 
    x: -0.0236609786533
    y: 0.00418065258801
    z: -0.694418825422
    w: 0.719169867775
---
header: 
  seq: 5667
  stamp: 
    secs: 1723693506
    nsecs: 328979328
  frame_id: "map"
pose: 
  position: 
    x: -40.159866333
    y: -11.1407022476
    z: -5.41681194305
  orientation: 
    x: -0.0236680612995
    y: 0.0042068000977
    z: -0.69456180202
    w: 0.719031358743
---
header: 
  seq: 5668
  stamp: 
    secs: 1723693506
    nsecs: 358979328
  frame_id: "map"
pose: 
  position: 
    x: -40.1598587036
    y: -11.1402244568
    z: -5.41621112823
  orientation: 
    x: -0.0236757537579
    y: 0.00421019752881
    z: -0.694636263648
    w: 0.718959088751
---
header: 
  seq: 5669
  stamp: 
    secs: 1723693506
    nsecs: 398979328
  frame_id: "map"
pose: 
  position: 
    x: -40.1600074768
    y: -11.1397342682
    z: -5.41563177109
  orientation: 
    x: -0.0236922898105
    y: 0.00422799535268
    z: -0.694756656121
    w: 0.71884215232
---
header: 
  seq: 5670
  stamp: 
    secs: 1723693506
    nsecs: 429981888
  frame_id: "map"
pose: 
  position: 
    x: -40.1600837708
    y: -11.1392812729
    z: -5.41497421265
  orientation: 
    x: -0.0236784241559
    y: 0.0042264642367
    z: -0.694933466101
    w: 0.718671664367
---
header: 
  seq: 5671
  stamp: 
    secs: 1723693506
    nsecs: 469981888
  frame_id: "map"
pose: 
  position: 
    x: -40.1601295471
    y: -11.1384620667
    z: -5.41363286972
  orientation: 
    x: -0.0236766171097
    y: 0.0042389476064
    z: -0.695013446332
    w: 0.718594297241
---
header: 
  seq: 5672
  stamp: 
    secs: 1723693506
    nsecs: 499981888
  frame_id: "map"
pose: 
  position: 
    x: -40.1602096558
    y: -11.1379213333
    z: -5.41271972656
  orientation: 
    x: -0.023652178523
    y: 0.00428330057901
    z: -0.69516764848
    w: 0.718445658477
---
header: 
  seq: 5673
  stamp: 
    secs: 1723693506
    nsecs: 529984448
  frame_id: "map"
pose: 
  position: 
    x: -40.1604881287
    y: -11.1373558044
    z: -5.41194391251
  orientation: 
    x: -0.0236411821468
    y: 0.0042946209591
    z: -0.695311889483
    w: 0.718306390801
---
header: 
  seq: 5674
  stamp: 
    secs: 1723693506
    nsecs: 569984448
  frame_id: "map"
pose: 
  position: 
    x: -40.1611289978
    y: -11.1363763809
    z: -5.41087055206
  orientation: 
    x: -0.0236470451686
    y: 0.00427590578273
    z: -0.695395687955
    w: 0.718225205435
---
header: 
  seq: 5675
  stamp: 
    secs: 1723693506
    nsecs: 599984448
  frame_id: "map"
pose: 
  position: 
    x: -40.1617279053
    y: -11.1357831955
    z: -5.41026067734
  orientation: 
    x: -0.0236681706179
    y: 0.00425835491305
    z: -0.695545343511
    w: 0.718079595975
---
header: 
  seq: 5676
  stamp: 
    secs: 1723693506
    nsecs: 629987008
  frame_id: "map"
pose: 
  position: 
    x: -40.162197113
    y: -11.1351690292
    z: -5.4095082283
  orientation: 
    x: -0.0236600606423
    y: 0.00424136644037
    z: -0.695688757383
    w: 0.717941071138
---
header: 
  seq: 5677
  stamp: 
    secs: 1723693506
    nsecs: 659987008
  frame_id: "map"
pose: 
  position: 
    x: -40.1625137329
    y: -11.134510994
    z: -5.40869045258
  orientation: 
    x: -0.0236631498745
    y: 0.00424082182407
    z: -0.695768968104
    w: 0.717863304934
---
header: 
  seq: 5678
  stamp: 
    secs: 1723693506
    nsecs: 699987008
  frame_id: "map"
pose: 
  position: 
    x: -40.1629562378
    y: -11.133728981
    z: -5.40759706497
  orientation: 
    x: -0.0236955206298
    y: 0.00422003881794
    z: -0.695906625638
    w: 0.717728850561
---
header: 
  seq: 5679
  stamp: 
    secs: 1723693506
    nsecs: 729987008
  frame_id: "map"
pose: 
  position: 
    x: -40.1632347107
    y: -11.1332445145
    z: -5.40698337555
  orientation: 
    x: -0.0236914626786
    y: 0.00418589065102
    z: -0.696053071449
    w: 0.717587125197
---
header: 
  seq: 5680
  stamp: 
    secs: 1723693506
    nsecs: 759987008
  frame_id: "map"
pose: 
  position: 
    x: -40.163192749
    y: -11.1327800751
    z: -5.40648603439
  orientation: 
    x: -0.0236905993267
    y: 0.0041867144902
    z: -0.696118128402
    w: 0.717524091292
---
header: 
  seq: 5681
  stamp: 
    secs: 1723693506
    nsecs: 799987008
  frame_id: "map"
pose: 
  position: 
    x: -40.1633071899
    y: -11.1322956085
    z: -5.40582036972
  orientation: 
    x: -0.0237091399888
    y: 0.00422317283125
    z: -0.696268981193
    w: 0.717376947425
---
header: 
  seq: 5682
  stamp: 
    secs: 1723693506
    nsecs: 829989312
  frame_id: "map"
pose: 
  position: 
    x: -40.1634368896
    y: -11.1319723129
    z: -5.40532922745
  orientation: 
    x: -0.0237087573744
    y: 0.00423281984975
    z: -0.696406452359
    w: 0.717243438062
---
header: 
  seq: 5683
  stamp: 
    secs: 1723693506
    nsecs: 869989312
  frame_id: "map"
pose: 
  position: 
    x: -40.1637649536
    y: -11.1316041946
    z: -5.40464925766
  orientation: 
    x: -0.0237201231941
    y: 0.00422493904762
    z: -0.696485946583
    w: 0.717165966886
---
header: 
  seq: 5684
  stamp: 
    secs: 1723693506
    nsecs: 899989312
  frame_id: "map"
pose: 
  position: 
    x: -40.1640357971
    y: -11.1313791275
    z: -5.40421581268
  orientation: 
    x: -0.023733838042
    y: 0.00418685541873
    z: -0.696620392396
    w: 0.717034977115
---
header: 
  seq: 5685
  stamp: 
    secs: 1723693506
    nsecs: 929991360
  frame_id: "map"
pose: 
  position: 
    x: -40.1643371582
    y: -11.1311740875
    z: -5.40396785736
  orientation: 
    x: -0.0237003596149
    y: 0.00420540859315
    z: -0.696785700238
    w: 0.716875485538
---
header: 
  seq: 5686
  stamp: 
    secs: 1723693506
    nsecs: 959991360
  frame_id: "map"
pose: 
  position: 
    x: -40.1644515991
    y: -11.1309080124
    z: -5.40382862091
  orientation: 
    x: -0.0236991933326
    y: 0.00418615209319
    z: -0.696868383794
    w: 0.716795162206
---
header: 
  seq: 5687
  stamp: 
    secs: 1723693506
    nsecs: 999991360
  frame_id: "map"
pose: 
  position: 
    x: -40.1647644043
    y: -11.1306524277
    z: -5.40377616882
  orientation: 
    x: -0.0237275107464
    y: 0.00416938028166
    z: -0.697006109158
    w: 0.716660471415
---
header: 
  seq: 5688
  stamp: 
    secs: 1723693507
    nsecs:  30991104
  frame_id: "map"
pose: 
  position: 
    x: -40.1648979187
    y: -11.1304655075
    z: -5.4037976265
  orientation: 
    x: -0.0237252763049
    y: 0.0041783871949
    z: -0.697180844065
    w: 0.716490541249
---
header: 
  seq: 5689
  stamp: 
    secs: 1723693507
    nsecs:  60991104
  frame_id: "map"
pose: 
  position: 
    x: -40.1648483276
    y: -11.1302566528
    z: -5.40395450592
  orientation: 
    x: -0.0237282041938
    y: 0.0042012531773
    z: -0.697252562196
    w: 0.716420508991
---
header: 
  seq: 5690
  stamp: 
    secs: 1723693507
    nsecs: 100991104
  frame_id: "map"
pose: 
  position: 
    x: -40.1649589539
    y: -11.1300621033
    z: -5.40424919128
  orientation: 
    x: -0.0237147303731
    y: 0.00417669473551
    z: -0.697421062663
    w: 0.716257066147
---
header: 
  seq: 5691
  stamp: 
    secs: 1723693507
    nsecs: 130994176
  frame_id: "map"
pose: 
  position: 
    x: -40.1648788452
    y: -11.1298437119
    z: -5.40422296524
  orientation: 
    x: -0.0236954870441
    y: 0.00420344020362
    z: -0.697564846636
    w: 0.716117496858
---
header: 
  seq: 5692
  stamp: 
    secs: 1723693507
    nsecs: 160994176
  frame_id: "map"
pose: 
  position: 
    x: -40.1648368835
    y: -11.1296386719
    z: -5.40421295166
  orientation: 
    x: -0.0236841245171
    y: 0.00422063216654
    z: -0.697642881526
    w: 0.716041737898
---
header: 
  seq: 5693
  stamp: 
    secs: 1723693507
    nsecs: 200994176
  frame_id: "map"
pose: 
  position: 
    x: -40.1648330688
    y: -11.1294231415
    z: -5.40426301956
  orientation: 
    x: -0.0236873829953
    y: 0.00421136512822
    z: -0.697802143272
    w: 0.715886437957
---
header: 
  seq: 5694
  stamp: 
    secs: 1723693507
    nsecs: 230996480
  frame_id: "map"
pose: 
  position: 
    x: -40.1649246216
    y: -11.1292724609
    z: -5.40442991257
  orientation: 
    x: -0.0236924215194
    y: 0.00421159496026
    z: -0.697952631887
    w: 0.71573957397
---
header: 
  seq: 5695
  stamp: 
    secs: 1723693507
    nsecs: 260996480
  frame_id: "map"
pose: 
  position: 
    x: -40.1649284363
    y: -11.1290473938
    z: -5.40431833267
  orientation: 
    x: -0.0236904570811
    y: 0.0042282396727
    z: -0.69801599243
    w: 0.715677815008
---
header: 
  seq: 5696
  stamp: 
    secs: 1723693507
    nsecs: 300996480
  frame_id: "map"
pose: 
  position: 
    x: -40.1650733948
    y: -11.1288461685
    z: -5.40416812897
  orientation: 
    x: -0.0237012091373
    y: 0.00420268617015
    z: -0.698148732612
    w: 0.715548025105
---
header: 
  seq: 5697
  stamp: 
    secs: 1723693507
    nsecs: 330996736
  frame_id: "map"
pose: 
  position: 
    x: -40.1651268005
    y: -11.1286535263
    z: -5.40378904343
  orientation: 
    x: -0.0236996661675
    y: 0.00419590513736
    z: -0.698303389155
    w: 0.715397246071
---
header: 
  seq: 5698
  stamp: 
    secs: 1723693507
    nsecs: 360996736
  frame_id: "map"
pose: 
  position: 
    x: -40.1650657654
    y: -11.1283512115
    z: -5.40341472626
  orientation: 
    x: -0.0237192315248
    y: 0.00419350671826
    z: -0.698370372352
    w: 0.7153312744
---
header: 
  seq: 5699
  stamp: 
    secs: 1723693507
    nsecs: 400996736
  frame_id: "map"
pose: 
  position: 
    x: -40.165184021
    y: -11.1280450821
    z: -5.40319347382
  orientation: 
    x: -0.0237255673816
    y: 0.0041904741208
    z: -0.698508665381
    w: 0.715196015943
---
header: 
  seq: 5700
  stamp: 
    secs: 1723693507
    nsecs: 430999808
  frame_id: "map"
pose: 
  position: 
    x: -40.1652450562
    y: -11.1279573441
    z: -5.40303897858
  orientation: 
    x: -0.023707692508
    y: 0.00417223968192
    z: -0.698650503356
    w: 0.715058139772
---
header: 
  seq: 5701
  stamp: 
    secs: 1723693507
    nsecs: 460999808
  frame_id: "map"
pose: 
  position: 
    x: -40.1652946472
    y: -11.1281194687
    z: -5.40306138992
  orientation: 
    x: -0.0236925288621
    y: 0.00417658475858
    z: -0.698722582369
    w: 0.714988083807
---
header: 
  seq: 5702
  stamp: 
    secs: 1723693507
    nsecs: 500999808
  frame_id: "map"
pose: 
  position: 
    x: -40.1654129028
    y: -11.1283512115
    z: -5.40333890915
  orientation: 
    x: -0.0237023418338
    y: 0.00419988340473
    z: -0.698861553041
    w: 0.714851810534
---
header: 
  seq: 5703
  stamp: 
    secs: 1723693507
    nsecs: 531001344
  frame_id: "map"
pose: 
  position: 
    x: -40.1656150818
    y: -11.1285305023
    z: -5.40370416641
  orientation: 
    x: -0.0236849970886
    y: 0.00421210467371
    z: -0.698999786143
    w: 0.714717202061
---
header: 
  seq: 5704
  stamp: 
    secs: 1723693507
    nsecs: 561001344
  frame_id: "map"
pose: 
  position: 
    x: -40.165763855
    y: -11.1286315918
    z: -5.40410423279
  orientation: 
    x: -0.0237036088735
    y: 0.00419907207789
    z: -0.699053834867
    w: 0.714663743393
---
header: 
  seq: 5705
  stamp: 
    secs: 1723693507
    nsecs: 601001344
  frame_id: "map"
pose: 
  position: 
    x: -40.1661300659
    y: -11.1288137436
    z: -5.40491294861
  orientation: 
    x: -0.0236891571143
    y: 0.00419001906654
    z: -0.699185544427
    w: 0.714535405581
---
header: 
  seq: 5706
  stamp: 
    secs: 1723693507
    nsecs: 631002368
  frame_id: "map"
pose: 
  position: 
    x: -40.1663665771
    y: -11.1288747787
    z: -5.40547513962
  orientation: 
    x: -0.0236900560275
    y: 0.00420153240018
    z: -0.699324965543
    w: 0.71439885045
---
header: 
  seq: 5707
  stamp: 
    secs: 1723693507
    nsecs: 661002368
  frame_id: "map"
pose: 
  position: 
    x: -40.1665725708
    y: -11.1288003922
    z: -5.4059214592
  orientation: 
    x: -0.0237025775928
    y: 0.00418240958475
    z: -0.699395576661
    w: 0.714329503738
---
header: 
  seq: 5708
  stamp: 
    secs: 1723693507
    nsecs: 701002368
  frame_id: "map"
pose: 
  position: 
    x: -40.1668777466
    y: -11.1287260056
    z: -5.40646839142
  orientation: 
    x: -0.0236812420678
    y: 0.00421363117988
    z: -0.699544349109
    w: 0.714184355919
---
header: 
  seq: 5709
  stamp: 
    secs: 1723693507
    nsecs: 732003904
  frame_id: "map"
pose: 
  position: 
    x: -40.1671409607
    y: -11.1287164688
    z: -5.40686511993
  orientation: 
    x: -0.0236958676828
    y: 0.00421488702425
    z: -0.699681197951
    w: 0.714049783007
---
header: 
  seq: 5710
  stamp: 
    secs: 1723693507
    nsecs: 761003904
  frame_id: "map"
pose: 
  position: 
    x: -40.1672210693
    y: -11.1287155151
    z: -5.40705060959
  orientation: 
    x: -0.0236810247481
    y: 0.00421890875556
    z: -0.699757712261
    w: 0.713975207451
---
header: 
  seq: 5711
  stamp: 
    secs: 1723693507
    nsecs: 802003904
  frame_id: "map"
pose: 
  position: 
    x: -40.1674919128
    y: -11.1287670135
    z: -5.40728378296
  orientation: 
    x: -0.0236754909986
    y: 0.00424872172398
    z: -0.699897398113
    w: 0.713838303292
---
header: 
  seq: 5712
  stamp: 
    secs: 1723693507
    nsecs: 832003904
  frame_id: "map"
pose: 
  position: 
    x: -40.167514801
    y: -11.1288871765
    z: -5.40735960007
  orientation: 
    x: -0.0236715792442
    y: 0.00428148826452
    z: -0.700057519258
    w: 0.713681216719
---
header: 
  seq: 5713
  stamp: 
    secs: 1723693507
    nsecs: 862003904
  frame_id: "map"
pose: 
  position: 
    x: -40.1675033569
    y: -11.1290616989
    z: -5.40732765198
  orientation: 
    x: -0.0237015937273
    y: 0.00426370163591
    z: -0.700113226197
    w: 0.713625762662
---
header: 
  seq: 5714
  stamp: 
    secs: 1723693507
    nsecs: 892003904
  frame_id: "map"
pose: 
  position: 
    x: -40.1676292419
    y: -11.1292686462
    z: -5.40729570389
  orientation: 
    x: -0.0236962285652
    y: 0.00427424032367
    z: -0.700260196209
    w: 0.713481574342
---
header: 
  seq: 5715
  stamp: 
    secs: 1723693507
    nsecs: 932005696
  frame_id: "map"
pose: 
  position: 
    x: -40.1673278809
    y: -11.1293153763
    z: -5.4070110321
  orientation: 
    x: -0.0236973296516
    y: 0.0043077997518
    z: -0.700370096751
    w: 0.713373443968
---
header: 
  seq: 5716
  stamp: 
    secs: 1723693507
    nsecs: 962005696
  frame_id: "map"
pose: 
  position: 
    x: -40.1669197083
    y: -11.1292247772
    z: -5.40673732758
  orientation: 
    x: -0.0236910135512
    y: 0.00431629695158
    z: -0.700453355874
    w: 0.713291786424
---
header: 
  seq: 5717
  stamp: 
    secs: 1723693508
    nsecs:   2005696
  frame_id: "map"
pose: 
  position: 
    x: -40.1664466858
    y: -11.1291284561
    z: -5.40645980835
  orientation: 
    x: -0.0237098709732
    y: 0.00430370623913
    z: -0.700570707188
    w: 0.713176036691
---
header: 
  seq: 5718
  stamp: 
    secs: 1723693508
    nsecs:  32009792
  frame_id: "map"
pose: 
  position: 
    x: -40.1661720276
    y: -11.1289138794
    z: -5.40668153763
  orientation: 
    x: -0.023704592739
    y: 0.00431869668777
    z: -0.700691090442
    w: 0.713057929367
---
header: 
  seq: 5719
  stamp: 
    secs: 1723693508
    nsecs:  62009792
  frame_id: "map"
pose: 
  position: 
    x: -40.1659049988
    y: -11.1286334991
    z: -5.40702438354
  orientation: 
    x: -0.0237130550359
    y: 0.00431233909909
    z: -0.70079226
    w: 0.712958192801
---
header: 
  seq: 5720
  stamp: 
    secs: 1723693508
    nsecs: 102009792
  frame_id: "map"
pose: 
  position: 
    x: -40.1657333374
    y: -11.128329277
    z: -5.40726470947
  orientation: 
    x: -0.0236896424616
    y: 0.00432388206723
    z: -0.700924082171
    w: 0.712829236616
---
header: 
  seq: 5721
  stamp: 
    secs: 1723693508
    nsecs: 132010304
  frame_id: "map"
pose: 
  position: 
    x: -40.1655845642
    y: -11.1283006668
    z: -5.4075255394
  orientation: 
    x: -0.023713552237
    y: 0.00433408753147
    z: -0.701077263575
    w: 0.71267782538
---
header: 
  seq: 5722
  stamp: 
    secs: 1723693508
    nsecs: 162010304
  frame_id: "map"
pose: 
  position: 
    x: -40.1654586792
    y: -11.1286315918
    z: -5.40796041489
  orientation: 
    x: -0.0237145374196
    y: 0.00432885605389
    z: -0.701159838471
    w: 0.712596514889
---
header: 
  seq: 5723
  stamp: 
    secs: 1723693508
    nsecs: 192010304
  frame_id: "map"
pose: 
  position: 
    x: -40.1653671265
    y: -11.1289644241
    z: -5.40829801559
  orientation: 
    x: -0.0236922259317
    y: 0.00437535719869
    z: -0.701292538482
    w: 0.712466427983
---
header: 
  seq: 5724
  stamp: 
    secs: 1723693508
    nsecs: 232012864
  frame_id: "map"
pose: 
  position: 
    x: -40.1654167175
    y: -11.129447937
    z: -5.40870141983
  orientation: 
    x: -0.0236792308729
    y: 0.0043622686266
    z: -0.701436529897
    w: 0.71232521826
---
header: 
  seq: 5725
  stamp: 
    secs: 1723693508
    nsecs: 262012864
  frame_id: "map"
pose: 
  position: 
    x: -40.1650505066
    y: -11.1299343109
    z: -5.40876960754
  orientation: 
    x: -0.0236634626832
    y: 0.00434362654866
    z: -0.701518522311
    w: 0.712245080308
---
header: 
  seq: 5726
  stamp: 
    secs: 1723693508
    nsecs: 302012864
  frame_id: "map"
pose: 
  position: 
    x: -40.1647415161
    y: -11.130604744
    z: -5.40891456604
  orientation: 
    x: -0.0236402391111
    y: 0.00437884353332
    z: -0.701637239775
    w: 0.712128638773
---
header: 
  seq: 5727
  stamp: 
    secs: 1723693508
    nsecs: 332014144
  frame_id: "map"
pose: 
  position: 
    x: -40.1644439697
    y: -11.1310129166
    z: -5.40956306458
  orientation: 
    x: -0.0236512150724
    y: 0.00438304570582
    z: -0.701794282226
    w: 0.711973450784
---
header: 
  seq: 5728
  stamp: 
    secs: 1723693508
    nsecs: 362014144
  frame_id: "map"
pose: 
  position: 
    x: -40.164226532
    y: -11.1314067841
    z: -5.41069936752
  orientation: 
    x: -0.0236257517905
    y: 0.00439045433154
    z: -0.701850147544
    w: 0.711919271339
---
header: 
  seq: 5729
  stamp: 
    secs: 1723693508
    nsecs: 392014144
  frame_id: "map"
pose: 
  position: 
    x: -40.1640510559
    y: -11.1317892075
    z: -5.41179990768
  orientation: 
    x: -0.0236215542278
    y: 0.00439226532893
    z: -0.702014095821
    w: 0.711757767579
---
header: 
  seq: 5730
  stamp: 
    secs: 1723693508
    nsecs: 433013888
  frame_id: "map"
pose: 
  position: 
    x: -40.1641235352
    y: -11.1323814392
    z: -5.41334486008
  orientation: 
    x: -0.0236555272219
    y: 0.00437954224904
    z: -0.702141037519
    w: 0.711631415937
---
header: 
  seq: 5731
  stamp: 
    secs: 1723693508
    nsecs: 463013888
  frame_id: "map"
pose: 
  position: 
    x: -40.1647720337
    y: -11.1330013275
    z: -5.41451072693
  orientation: 
    x: -0.0236161831388
    y: 0.00440515699622
    z: -0.702219032567
    w: 0.711555528232
---
header: 
  seq: 5732
  stamp: 
    secs: 1723693508
    nsecs: 493013888
  frame_id: "map"
pose: 
  position: 
    x: -40.1654090881
    y: -11.1335859299
    z: -5.41561555862
  orientation: 
    x: -0.0236182509685
    y: 0.00439819222951
    z: -0.70233670591
    w: 0.711439372176
---
header: 
  seq: 5733
  stamp: 
    secs: 1723693508
    nsecs: 533015936
  frame_id: "map"
pose: 
  position: 
    x: -40.1662979126
    y: -11.1343832016
    z: -5.4169254303
  orientation: 
    x: -0.023596426145
    y: 0.00437707995112
    z: -0.702462176749
    w: 0.711316430148
---
header: 
  seq: 5734
  stamp: 
    secs: 1723693508
    nsecs: 563015936
  frame_id: "map"
pose: 
  position: 
    x: -40.1668205261
    y: -11.1349496841
    z: -5.4178981781
  orientation: 
    x: -0.0235841001674
    y: 0.00440222120481
    z: -0.702524948223
    w: 0.711254670197
---
header: 
  seq: 5735
  stamp: 
    secs: 1723693508
    nsecs: 603015936
  frame_id: "map"
pose: 
  position: 
    x: -40.1676483154
    y: -11.1357345581
    z: -5.41923093796
  orientation: 
    x: -0.0235279961266
    y: 0.00441707665182
    z: -0.702668213923
    w: 0.71111486054
---
header: 
  seq: 5736
  stamp: 
    secs: 1723693508
    nsecs: 633018496
  frame_id: "map"
pose: 
  position: 
    x: -40.1683654785
    y: -11.136305809
    z: -5.42013978958
  orientation: 
    x: -0.0234870142434
    y: 0.00440566736822
    z: -0.702812689697
    w: 0.710973503632
---
header: 
  seq: 5737
  stamp: 
    secs: 1723693508
    nsecs: 663018496
  frame_id: "map"
pose: 
  position: 
    x: -40.1693267822
    y: -11.1369009018
    z: -5.42115879059
  orientation: 
    x: -0.0234833817118
    y: 0.00440040954886
    z: -0.702882808553
    w: 0.710904312007
---
header: 
  seq: 5738
  stamp: 
    secs: 1723693508
    nsecs: 693018496
  frame_id: "map"
pose: 
  position: 
    x: -40.1702651978
    y: -11.1374673843
    z: -5.42186450958
  orientation: 
    x: -0.0234652401277
    y: 0.00440188732274
    z: -0.703037308692
    w: 0.710752087797
---
header: 
  seq: 5739
  stamp: 
    secs: 1723693508
    nsecs: 733018752
  frame_id: "map"
pose: 
  position: 
    x: -40.1714439392
    y: -11.1379680634
    z: -5.42266273499
  orientation: 
    x: -0.0234415917945
    y: 0.00441764629282
    z: -0.703155492077
    w: 0.710635843167
---
header: 
  seq: 5740
  stamp: 
    secs: 1723693508
    nsecs: 763018752
  frame_id: "map"
pose: 
  position: 
    x: -40.171913147
    y: -11.1376886368
    z: -5.42294836044
  orientation: 
    x: -0.023437671479
    y: 0.00441690147898
    z: -0.703233148304
    w: 0.710559114171
---
header: 
  seq: 5741
  stamp: 
    secs: 1723693508
    nsecs: 793018752
  frame_id: "map"
pose: 
  position: 
    x: -40.1724510193
    y: -11.1374540329
    z: -5.42315864563
  orientation: 
    x: -0.023426264171
    y: 0.00438879348229
    z: -0.703361357371
    w: 0.710432759566
---
header: 
  seq: 5742
  stamp: 
    secs: 1723693508
    nsecs: 833021568
  frame_id: "map"
pose: 
  position: 
    x: -40.1727371216
    y: -11.1370983124
    z: -5.42332744598
  orientation: 
    x: -0.0234516128662
    y: 0.00433897063899
    z: -0.70350579067
    w: 0.710289253498
---
header: 
  seq: 5743
  stamp: 
    secs: 1723693508
    nsecs: 863021568
  frame_id: "map"
pose: 
  position: 
    x: -40.1725654602
    y: -11.1367530823
    z: -5.42330741882
  orientation: 
    x: -0.0234386869546
    y: 0.00436694824387
    z: -0.703565182494
    w: 0.710230620317
---
header: 
  seq: 5744
  stamp: 
    secs: 1723693508
    nsecs: 903021568
  frame_id: "map"
pose: 
  position: 
    x: -40.1725349426
    y: -11.1363897324
    z: -5.42321872711
  orientation: 
    x: -0.023481341541
    y: 0.00438622581725
    z: -0.703713551255
    w: 0.710082167262
---
header: 
  seq: 5745
  stamp: 
    secs: 1723693508
    nsecs: 933024896
  frame_id: "map"
pose: 
  position: 
    x: -40.172744751
    y: -11.1364440918
    z: -5.42302894592
  orientation: 
    x: -0.0234874508584
    y: 0.00439124063368
    z: -0.703853563085
    w: 0.70994325125
---
header: 
  seq: 5746
  stamp: 
    secs: 1723693508
    nsecs: 963024896
  frame_id: "map"
pose: 
  position: 
    x: -40.1731719971
    y: -11.1367006302
    z: -5.42273950577
  orientation: 
    x: -0.0234693402258
    y: 0.00441832064239
    z: -0.703909462648
    w: 0.709888194624
---
header: 
  seq: 5747
  stamp: 
    secs: 1723693508
    nsecs: 993024896
  frame_id: "map"
pose: 
  position: 
    x: -40.1735115051
    y: -11.1369590759
    z: -5.42245817184
  orientation: 
    x: -0.0234842832593
    y: 0.00448118069131
    z: -0.704342454345
    w: 0.709457647444
---
header: 
  seq: 5748
  stamp: 
    secs: 1723693509
    nsecs:  33025920
  frame_id: "map"
pose: 
  position: 
    x: -40.1743774414
    y: -11.1371250153
    z: -5.42198705673
  orientation: 
    x: -0.0235910155433
    y: 0.00469798342151
    z: -0.704761143608
    w: 0.709036850839
---
header: 
  seq: 5749
  stamp: 
    secs: 1723693509
    nsecs:  64025920
  frame_id: "map"
pose: 
  position: 
    x: -40.1750793457
    y: -11.1370820999
    z: -5.42157173157
  orientation: 
    x: -0.0236730879697
    y: 0.004829195122
    z: -0.704889017805
    w: 0.708906026363
---
header: 
  seq: 5750
  stamp: 
    secs: 1723693509
    nsecs:  94025920
  frame_id: "map"
pose: 
  position: 
    x: -40.1760635376
    y: -11.1370544434
    z: -5.42134189606
  orientation: 
    x: -0.0239496549311
    y: 0.00467115036699
    z: -0.704756398465
    w: 0.709029626277
---
header: 
  seq: 5751
  stamp: 
    secs: 1723693509
    nsecs: 134028224
  frame_id: "map"
pose: 
  position: 
    x: -40.1772232056
    y: -11.137005806
    z: -5.4209561348
  orientation: 
    x: -0.0237854659558
    y: 0.00428237795815
    z: -0.704576171297
    w: 0.709216849822
---
header: 
  seq: 5752
  stamp: 
    secs: 1723693509
    nsecs: 164028224
  frame_id: "map"
pose: 
  position: 
    x: -40.1778450012
    y: -11.1368684769
    z: -5.42062854767
  orientation: 
    x: -0.023474846975
    y: 0.00419648465652
    z: -0.704640377905
    w: 0.709163854276
---
header: 
  seq: 5753
  stamp: 
    secs: 1723693509
    nsecs: 194028224
  frame_id: "map"
pose: 
  position: 
    x: -40.178352356
    y: -11.1367015839
    z: -5.42030763626
  orientation: 
    x: -0.0232994047912
    y: 0.00406611194173
    z: -0.705143022373
    w: 0.708670566408
---
header: 
  seq: 5754
  stamp: 
    secs: 1723693509
    nsecs: 234030528
  frame_id: "map"
pose: 
  position: 
    x: -40.1789360046
    y: -11.1366825104
    z: -5.41985702515
  orientation: 
    x: -0.0233598940799
    y: 0.00482166466555
    z: -0.705898002163
    w: 0.707911793402
---
header: 
  seq: 5755
  stamp: 
    secs: 1723693509
    nsecs: 264030528
  frame_id: "map"
pose: 
  position: 
    x: -40.1792221069
    y: -11.1367397308
    z: -5.41912269592
  orientation: 
    x: -0.0233992915051
    y: 0.0055122348515
    z: -0.706304986085
    w: 0.707499414683
---
header: 
  seq: 5756
  stamp: 
    secs: 1723693509
    nsecs: 294030528
  frame_id: "map"
pose: 
  position: 
    x: -40.1796646118
    y: -11.1368093491
    z: -5.41859865189
  orientation: 
    x: -0.0239135423259
    y: 0.00669865941746
    z: -0.707058384596
    w: 0.706719042188
---
header: 
  seq: 5757
  stamp: 
    secs: 1723693509
    nsecs: 334033344
  frame_id: "map"
pose: 
  position: 
    x: -40.1802902222
    y: -11.1368904114
    z: -5.4180855751
  orientation: 
    x: -0.0243206268819
    y: 0.00747709985566
    z: -0.707271442709
    w: 0.706484067715
---
header: 
  seq: 5758
  stamp: 
    secs: 1723693509
    nsecs: 364033344
  frame_id: "map"
pose: 
  position: 
    x: -40.181098938
    y: -11.1371030807
    z: -5.4177365303
  orientation: 
    x: -0.0238578847783
    y: 0.00814460452021
    z: -0.707052471227
    w: 0.706711721448
---
header: 
  seq: 5759
  stamp: 
    secs: 1723693509
    nsecs: 394033344
  frame_id: "map"
pose: 
  position: 
    x: -40.1822166443
    y: -11.1375951767
    z: -5.41689491272
  orientation: 
    x: -0.0212782266583
    y: 0.0104940618219
    z: -0.705748190284
    w: 0.70806548279
---
header: 
  seq: 5760
  stamp: 
    secs: 1723693509
    nsecs: 434036160
  frame_id: "map"
pose: 
  position: 
    x: -40.1841506958
    y: -11.1391782761
    z: -5.41442584991
  orientation: 
    x: -0.0139385265167
    y: 0.016702058495
    z: -0.703204738036
    w: 0.710654537929
---
header: 
  seq: 5761
  stamp: 
    secs: 1723693509
    nsecs: 464036160
  frame_id: "map"
pose: 
  position: 
    x: -40.1855392456
    y: -11.1409053802
    z: -5.41175746918
  orientation: 
    x: -0.009322296786
    y: 0.0207834078396
    z: -0.701725250298
    w: 0.712083533742
---
header: 
  seq: 5762
  stamp: 
    secs: 1723693509
    nsecs: 494036160
  frame_id: "map"
pose: 
  position: 
    x: -40.1871490479
    y: -11.1426506042
    z: -5.40795516968
  orientation: 
    x: -0.000713841173229
    y: 0.0288328539955
    z: -0.699253674807
    w: 0.714291691429
---
header: 
  seq: 5763
  stamp: 
    secs: 1723693509
    nsecs: 534038720
  frame_id: "map"
pose: 
  position: 
    x: -40.1893959045
    y: -11.1443996429
    z: -5.4013171196
  orientation: 
    x: 0.00551938532777
    y: 0.0357812229537
    z: -0.698179411566
    w: 0.715006863521
---
header: 
  seq: 5764
  stamp: 
    secs: 1723693509
    nsecs: 564038720
  frame_id: "map"
pose: 
  position: 
    x: -40.190776825
    y: -11.1448869705
    z: -5.39657306671
  orientation: 
    x: 0.00787862761306
    y: 0.0391941022074
    z: -0.697958753058
    w: 0.715021255353
---
header: 
  seq: 5765
  stamp: 
    secs: 1723693509
    nsecs: 594038720
  frame_id: "map"
pose: 
  position: 
    x: -40.1932868958
    y: -11.1452140808
    z: -5.39064359665
  orientation: 
    x: 0.0118769937642
    y: 0.0466561332476
    z: -0.697451754788
    w: 0.715012797666
---
header: 
  seq: 5766
  stamp: 
    secs: 1723693509
    nsecs: 634041280
  frame_id: "map"
pose: 
  position: 
    x: -40.1967391968
    y: -11.1460037231
    z: -5.38209152222
  orientation: 
    x: 0.0151058071938
    y: 0.0552164782328
    z: -0.696854423968
    w: 0.714924483554
---
header: 
  seq: 5767
  stamp: 
    secs: 1723693509
    nsecs: 664041280
  frame_id: "map"
pose: 
  position: 
    x: -40.1999778748
    y: -11.1473941803
    z: -5.37339496613
  orientation: 
    x: 0.0162580085187
    y: 0.0596688120405
    z: -0.69673087575
    w: 0.714661713759
---
header: 
  seq: 5768
  stamp: 
    secs: 1723693509
    nsecs: 695041280
  frame_id: "map"
pose: 
  position: 
    x: -40.2035331726
    y: -11.1491823196
    z: -5.3634223938
  orientation: 
    x: 0.0175350751508
    y: 0.0687455033352
    z: -0.697239782482
    w: 0.713318552307
---
header: 
  seq: 5769
  stamp: 
    secs: 1723693509
    nsecs: 735044608
  frame_id: "map"
pose: 
  position: 
    x: -40.2096099854
    y: -11.1522932053
    z: -5.34537553787
  orientation: 
    x: 0.0174432635096
    y: 0.077273307002
    z: -0.69881266138
    w: 0.710904675194
---
header: 
  seq: 5770
  stamp: 
    secs: 1723693509
    nsecs: 765044608
  frame_id: "map"
pose: 
  position: 
    x: -40.2139778137
    y: -11.154665947
    z: -5.32979393005
  orientation: 
    x: 0.0166906709434
    y: 0.0811473373159
    z: -0.699968135012
    w: 0.709352599717
---
header: 
  seq: 5771
  stamp: 
    secs: 1723693509
    nsecs: 795044608
  frame_id: "map"
pose: 
  position: 
    x: -40.2187805176
    y: -11.1571598053
    z: -5.31167936325
  orientation: 
    x: 0.0139109651119
    y: 0.0875871703024
    z: -0.70310019887
    w: 0.705538852732
---
header: 
  seq: 5772
  stamp: 
    secs: 1723693509
    nsecs: 835046656
  frame_id: "map"
pose: 
  position: 
    x: -40.2258338928
    y: -11.1612405777
    z: -5.28236436844
  orientation: 
    x: 0.0098255446452
    y: 0.0922498866899
    z: -0.707276503582
    w: 0.700823405533
---
header: 
  seq: 5773
  stamp: 
    secs: 1723693509
    nsecs: 865046656
  frame_id: "map"
pose: 
  position: 
    x: -40.2307739258
    y: -11.1648292542
    z: -5.25911808014
  orientation: 
    x: 0.00786035563715
    y: 0.0942667688077
    z: -0.709559107421
    w: 0.698267858704
---
header: 
  seq: 5774
  stamp: 
    secs: 1723693509
    nsecs: 895046656
  frame_id: "map"
pose: 
  position: 
    x: -40.2366104126
    y: -11.1693840027
    z: -5.23113965988
  orientation: 
    x: 0.00408283897224
    y: 0.0977972733302
    z: -0.7142326595
    w: 0.693030213204
---
header: 
  seq: 5775
  stamp: 
    secs: 1723693509
    nsecs: 925049472
  frame_id: "map"
pose: 
  position: 
    x: -40.2419662476
    y: -11.1739225388
    z: -5.20289993286
  orientation: 
    x: 0.000595160916178
    y: 0.100264154715
    z: -0.718703879047
    w: 0.688049101084
---
header: 
  seq: 5776
  stamp: 
    secs: 1723693509
    nsecs: 965049472
  frame_id: "map"
pose: 
  position: 
    x: -40.2502288818
    y: -11.1803531647
    z: -5.15901422501
  orientation: 
    x: -0.00107428102169
    y: 0.101168810477
    z: -0.720576545186
    w: 0.685954321053
---
header: 
  seq: 5777
  stamp: 
    secs: 1723693509
    nsecs: 995049472
  frame_id: "map"
pose: 
  position: 
    x: -40.2562294006
    y: -11.1846895218
    z: -5.12551403046
  orientation: 
    x: -0.00390741852038
    y: 0.102523994975
    z: -0.723303128866
    w: 0.682866201707
---
header: 
  seq: 5778
  stamp: 
    secs: 1723693510
    nsecs:  35051520
  frame_id: "map"
pose: 
  position: 
    x: -40.2650794983
    y: -11.1899852753
    z: -5.07418870926
  orientation: 
    x: -0.00543335043907
    y: 0.103868432028
    z: -0.724463963709
    w: 0.681420538461
---
header: 
  seq: 5779
  stamp: 
    secs: 1723693510
    nsecs:  65051520
  frame_id: "map"
pose: 
  position: 
    x: -40.271232605
    y: -11.1928596497
    z: -5.03554487228
  orientation: 
    x: -0.00565024865822
    y: 0.104537976863
    z: -0.724448939675
    w: 0.681332218423
---
header: 
  seq: 5780
  stamp: 
    secs: 1723693510
    nsecs:  95051520
  frame_id: "map"
pose: 
  position: 
    x: -40.2778701782
    y: -11.1955966949
    z: -4.99211740494
  orientation: 
    x: -0.00493540649734
    y: 0.105919708608
    z: -0.723580424836
    w: 0.682046981558
---
header: 
  seq: 5781
  stamp: 
    secs: 1723693510
    nsecs: 135052032
  frame_id: "map"
pose: 
  position: 
    x: -40.2851371765
    y: -11.1984157562
    z: -4.93694162369
  orientation: 
    x: -0.00267588233853
    y: 0.107719084012
    z: -0.721907391196
    w: 0.683548898993
---
header: 
  seq: 5782
  stamp: 
    secs: 1723693510
    nsecs: 165052032
  frame_id: "map"
pose: 
  position: 
    x: -40.2896652222
    y: -11.2002563477
    z: -4.89143371582
  orientation: 
    x: -0.0011475691229
    y: 0.108884544472
    z: -0.72112044368
    w: 0.684199037839
---
header: 
  seq: 5783
  stamp: 
    secs: 1723693510
    nsecs: 195052032
  frame_id: "map"
pose: 
  position: 
    x: -40.2928581238
    y: -11.2017431259
    z: -4.84930181503
  orientation: 
    x: 0.00214360452033
    y: 0.11142589407
    z: -0.720403716765
    w: 0.684542259383
---
header: 
  seq: 5784
  stamp: 
    secs: 1723693510
    nsecs: 225051520
  frame_id: "map"
pose: 
  position: 
    x: -40.295627594
    y: -11.2031164169
    z: -4.80491018295
  orientation: 
    x: 0.00394795325193
    y: 0.11253004667
    z: -0.721334130836
    w: 0.683372956974
---
header: 
  seq: 5785
  stamp: 
    secs: 1723693510
    nsecs: 265051520
  frame_id: "map"
pose: 
  position: 
    x: -40.2958908081
    y: -11.2025375366
    z: -4.75167036057
  orientation: 
    x: 0.0044726446374
    y: 0.112441575167
    z: -0.722300982175
    w: 0.682362188619
---
header: 
  seq: 5786
  stamp: 
    secs: 1723693510
    nsecs: 296051520
  frame_id: "map"
pose: 
  position: 
    x: -40.2960281372
    y: -11.2023630142
    z: -4.71091604233
  orientation: 
    x: 0.00499854774476
    y: 0.111309010322
    z: -0.725148195404
    w: 0.679518600019
---
header: 
  seq: 5787
  stamp: 
    secs: 1723693510
    nsecs: 326053824
  frame_id: "map"
pose: 
  position: 
    x: -40.2956504822
    y: -11.2016620636
    z: -4.67522096634
  orientation: 
    x: 0.00439346124576
    y: 0.107895921651
    z: -0.729259710039
    w: 0.675662326699
---
header: 
  seq: 5788
  stamp: 
    secs: 1723693510
    nsecs: 366053824
  frame_id: "map"
pose: 
  position: 
    x: -40.2947044373
    y: -11.1996927261
    z: -4.6312212944
  orientation: 
    x: 0.00316606072343
    y: 0.104888364688
    z: -0.731867037894
    w: 0.673319428171
---
header: 
  seq: 5789
  stamp: 
    secs: 1723693510
    nsecs: 396053824
  frame_id: "map"
pose: 
  position: 
    x: -40.2950019836
    y: -11.1986570358
    z: -4.59960174561
  orientation: 
    x: -0.00156654040723
    y: 0.0957885281884
    z: -0.737807651997
    w: 0.668178255491
---
header: 
  seq: 5790
  stamp: 
    secs: 1723693510
    nsecs: 436056128
  frame_id: "map"
pose: 
  position: 
    x: -40.2973709106
    y: -11.1971845627
    z: -4.56547021866
  orientation: 
    x: -0.00962499150074
    y: 0.0837902529163
    z: -0.744003604879
    w: 0.662831224432
---
header: 
  seq: 5791
  stamp: 
    secs: 1723693510
    nsecs: 466056128
  frame_id: "map"
pose: 
  position: 
    x: -40.30210495
    y: -11.1973104477
    z: -4.54170179367
  orientation: 
    x: -0.0143992389861
    y: 0.0771949033271
    z: -0.746913731499
    w: 0.660267713494
---
header: 
  seq: 5792
  stamp: 
    secs: 1723693510
    nsecs: 496056128
  frame_id: "map"
pose: 
  position: 
    x: -40.3087844849
    y: -11.1990842819
    z: -4.52246809006
  orientation: 
    x: -0.0243475271079
    y: 0.0634158196555
    z: -0.752020022393
    w: 0.655630769905
---
header: 
  seq: 5793
  stamp: 
    secs: 1723693510
    nsecs: 526057152
  frame_id: "map"
pose: 
  position: 
    x: -40.3191452026
    y: -11.2033510208
    z: -4.50411319733
  orientation: 
    x: -0.0332591864904
    y: 0.0496766918547
    z: -0.755595239454
    w: 0.652305062187
---
header: 
  seq: 5794
  stamp: 
    secs: 1723693510
    nsecs: 566057152
  frame_id: "map"
pose: 
  position: 
    x: -40.3357086182
    y: -11.2073926926
    z: -4.48223638535
  orientation: 
    x: -0.0376749503337
    y: 0.0427399511462
    z: -0.756606911332
    w: 0.651383078803
---
header: 
  seq: 5795
  stamp: 
    secs: 1723693510
    nsecs: 596057152
  frame_id: "map"
pose: 
  position: 
    x: -40.3526229858
    y: -11.2114744186
    z: -4.46683073044
  orientation: 
    x: -0.0469414311921
    y: 0.028182639417
    z: -0.757347168042
    w: 0.650713123036
---
header: 
  seq: 5796
  stamp: 
    secs: 1723693510
    nsecs: 626058432
  frame_id: "map"
pose: 
  position: 
    x: -40.3701286316
    y: -11.2141056061
    z: -4.45360612869
  orientation: 
    x: -0.0562029094172
    y: 0.0135079727515
    z: -0.756896360082
    w: 0.650973680121
---
header: 
  seq: 5797
  stamp: 
    secs: 1723693510
    nsecs: 661058432
  frame_id: "map"
pose: 
  position: 
    x: -40.3915328979
    y: -11.2159137726
    z: -4.43991661072
  orientation: 
    x: -0.0607926775124
    y: 0.00605308296793
    z: -0.756487388138
    w: 0.651148568469
---
header: 
  seq: 5798
  stamp: 
    secs: 1723693510
    nsecs: 696058432
  frame_id: "map"
pose: 
  position: 
    x: -40.4201622009
    y: -11.2172374725
    z: -4.4246969223
  orientation: 
    x: -0.0687091306049
    y: -0.00714644597529
    z: -0.755519901962
    w: 0.651473568087
---
header: 
  seq: 5799
  stamp: 
    secs: 1723693510
    nsecs: 736060736
  frame_id: "map"
pose: 
  position: 
    x: -40.4515075684
    y: -11.219171524
    z: -4.41020059586
  orientation: 
    x: -0.0747307061694
    y: -0.0157495160111
    z: -0.755809350712
    w: 0.650322722046
---
header: 
  seq: 5800
  stamp: 
    secs: 1723693510
    nsecs: 766060736
  frame_id: "map"
pose: 
  position: 
    x: -40.4782447815
    y: -11.2213535309
    z: -4.39888715744
  orientation: 
    x: -0.0768197568627
    y: -0.0176440906086
    z: -0.757074957353
    w: 0.648556073671
---
header: 
  seq: 5801
  stamp: 
    secs: 1723693510
    nsecs: 796060736
  frame_id: "map"
pose: 
  position: 
    x: -40.5028305054
    y: -11.2229452133
    z: -4.38868665695
  orientation: 
    x: -0.079234336643
    y: -0.0183890914738
    z: -0.761448156501
    w: 0.64310231362
---
header: 
  seq: 5802
  stamp: 
    secs: 1723693510
    nsecs: 826060736
  frame_id: "map"
pose: 
  position: 
    x: -40.5292892456
    y: -11.224565506
    z: -4.37720632553
  orientation: 
    x: -0.0776666793443
    y: -0.0172047597623
    z: -0.768065301279
    w: 0.635411435729
---
header: 
  seq: 5803
  stamp: 
    secs: 1723693510
    nsecs: 866060736
  frame_id: "map"
pose: 
  position: 
    x: -40.5618019104
    y: -11.2255573273
    z: -4.36210775375
  orientation: 
    x: -0.0765617391245
    y: -0.0164375685814
    z: -0.771867099797
    w: 0.630943295536
---
header: 
  seq: 5804
  stamp: 
    secs: 1723693510
    nsecs: 896060736
  frame_id: "map"
pose: 
  position: 
    x: -40.5893173218
    y: -11.2260360718
    z: -4.35104513168
  orientation: 
    x: -0.0733481420243
    y: -0.0151298308974
    z: -0.779982838995
    w: 0.621303526297
---
header: 
  seq: 5805
  stamp: 
    secs: 1723693510
    nsecs: 927062016
  frame_id: "map"
pose: 
  position: 
    x: -40.6150817871
    y: -11.2256565094
    z: -4.34216403961
  orientation: 
    x: -0.0696147004262
    y: -0.0147301944798
    z: -0.788468279811
    w: 0.610945753883
---
header: 
  seq: 5806
  stamp: 
    secs: 1723693510
    nsecs: 966062016
  frame_id: "map"
pose: 
  position: 
    x: -40.6531791687
    y: -11.2248544693
    z: -4.33273601532
  orientation: 
    x: -0.0682321968672
    y: -0.0151603847284
    z: -0.792755383484
    w: 0.605519168013
---
header: 
  seq: 5807
  stamp: 
    secs: 1723693510
    nsecs: 997062016
  frame_id: "map"
pose: 
  position: 
    x: -40.6809082031
    y: -11.22352314
    z: -4.32771253586
  orientation: 
    x: -0.0665578922366
    y: -0.017008545109
    z: -0.801510348128
    w: 0.59402179223
---
header: 
  seq: 5808
  stamp: 
    secs: 1723693511
    nsecs:  27064320
  frame_id: "map"
pose: 
  position: 
    x: -40.7086639404
    y: -11.2222204208
    z: -4.32422447205
  orientation: 
    x: -0.06488352702
    y: -0.0190074305225
    z: -0.809559922041
    w: 0.583130930671
---
header: 
  seq: 5809
  stamp: 
    secs: 1723693511
    nsecs:  67064320
  frame_id: "map"
pose: 
  position: 
    x: -40.7475242615
    y: -11.2212362289
    z: -4.32247686386
  orientation: 
    x: -0.0629104065019
    y: -0.0206157226515
    z: -0.815564910187
    w: 0.574866365683
---
header: 
  seq: 5810
  stamp: 
    secs: 1723693511
    nsecs:  97064320
  frame_id: "map"
pose: 
  position: 
    x: -40.7747268677
    y: -11.2206134796
    z: -4.32337093353
  orientation: 
    x: -0.0588071697721
    y: -0.023388562498
    z: -0.82417075928
    w: 0.562794275475
---
header: 
  seq: 5811
  stamp: 
    secs: 1723693511
    nsecs: 127067136
  frame_id: "map"
pose: 
  position: 
    x: -40.8047904968
    y: -11.2200880051
    z: -4.32580566406
  orientation: 
    x: -0.0508094944341
    y: -0.0273160481866
    z: -0.83516307884
    w: 0.546968892502
---
header: 
  seq: 5812
  stamp: 
    secs: 1723693511
    nsecs: 167067136
  frame_id: "map"
pose: 
  position: 
    x: -40.8456230164
    y: -11.2202720642
    z: -4.32874488831
  orientation: 
    x: -0.0475294831203
    y: -0.0284362284434
    z: -0.839916937788
    w: 0.539881446846
---
header: 
  seq: 5813
  stamp: 
    secs: 1723693511
    nsecs: 197067136
  frame_id: "map"
pose: 
  position: 
    x: -40.8812866211
    y: -11.2200679779
    z: -4.33146047592
  orientation: 
    x: -0.0423244744283
    y: -0.030583588643
    z: -0.849160574067
    w: 0.525546892736
---
header: 
  seq: 5814
  stamp: 
    secs: 1723693511
    nsecs: 227068416
  frame_id: "map"
pose: 
  position: 
    x: -40.9147758484
    y: -11.2194786072
    z: -4.33346414566
  orientation: 
    x: -0.0396029730653
    y: -0.0329597229242
    z: -0.857561905578
    w: 0.511793754401
---
header: 
  seq: 5815
  stamp: 
    secs: 1723693511
    nsecs: 267068416
  frame_id: "map"
pose: 
  position: 
    x: -40.9642982483
    y: -11.2189235687
    z: -4.33550643921
  orientation: 
    x: -0.0392003206786
    y: -0.0352805784855
    z: -0.86361571031
    w: 0.501384578637
---
header: 
  seq: 5816
  stamp: 
    secs: 1723693511
    nsecs: 297068416
  frame_id: "map"
pose: 
  position: 
    x: -41.0011329651
    y: -11.2187547684
    z: -4.33568334579
  orientation: 
    x: -0.040887561922
    y: -0.0380290717769
    z: -0.872112683558
    w: 0.486108621981
---
header: 
  seq: 5817
  stamp: 
    secs: 1723693511
    nsecs: 327070976
  frame_id: "map"
pose: 
  position: 
    x: -41.0437393188
    y: -11.2187709808
    z: -4.3351521492
  orientation: 
    x: -0.0456001709585
    y: -0.0387144309001
    z: -0.88239396471
    w: 0.466693444407
---
header: 
  seq: 5818
  stamp: 
    secs: 1723693511
    nsecs: 367070976
  frame_id: "map"
pose: 
  position: 
    x: -41.0996894836
    y: -11.2192001343
    z: -4.33321332932
  orientation: 
    x: -0.0472835404542
    y: -0.0379220089035
    z: -0.88570059571
    w: 0.460283203777
---
header: 
  seq: 5819
  stamp: 
    secs: 1723693511
    nsecs: 397070976
  frame_id: "map"
pose: 
  position: 
    x: -41.1466140747
    y: -11.2191514969
    z: -4.32898235321
  orientation: 
    x: -0.0521996331582
    y: -0.0332483396038
    z: -0.895465915143
    w: 0.440806744685
---
header: 
  seq: 5820
  stamp: 
    secs: 1723693511
    nsecs: 427072000
  frame_id: "map"
pose: 
  position: 
    x: -41.1906089783
    y: -11.2184486389
    z: -4.32289934158
  orientation: 
    x: -0.0563356311602
    y: -0.0268642234338
    z: -0.904288915337
    w: 0.422334223524
---
header: 
  seq: 5821
  stamp: 
    secs: 1723693511
    nsecs: 467072000
  frame_id: "map"
pose: 
  position: 
    x: -41.2525444031
    y: -11.2158136368
    z: -4.31022548676
  orientation: 
    x: -0.0584223097762
    y: -0.023203907935
    z: -0.908869814154
    w: 0.412315622605
---
header: 
  seq: 5822
  stamp: 
    secs: 1723693511
    nsecs: 497072000
  frame_id: "map"
pose: 
  position: 
    x: -41.2949523926
    y: -11.2132635117
    z: -4.29878568649
  orientation: 
    x: -0.0620226516267
    y: -0.0156407402634
    z: -0.918375003238
    w: 0.390507178385
---
header: 
  seq: 5823
  stamp: 
    secs: 1723693511
    nsecs: 528074816
  frame_id: "map"
pose: 
  position: 
    x: -41.3390235901
    y: -11.2102031708
    z: -4.28502607346
  orientation: 
    x: -0.0644793729871
    y: -0.00960490325906
    z: -0.926682694989
    w: 0.37014776389
---
header: 
  seq: 5824
  stamp: 
    secs: 1723693511
    nsecs: 567074816
  frame_id: "map"
pose: 
  position: 
    x: -41.391078949
    y: -11.2062120438
    z: -4.26828098297
  orientation: 
    x: -0.0663839785346
    y: -0.00603156700177
    z: -0.932266478067
    w: 0.355578525591
---
header: 
  seq: 5825
  stamp: 
    secs: 1723693511
    nsecs: 598074816
  frame_id: "map"
pose: 
  position: 
    x: -41.4314956665
    y: -11.202290535
    z: -4.25624322891
  orientation: 
    x: -0.0695587847291
    y: -0.00182053838978
    z: -0.93936255329
    w: 0.335791949988
---
header: 
  seq: 5826
  stamp: 
    secs: 1723693511
    nsecs: 638079424
  frame_id: "map"
pose: 
  position: 
    x: -41.4803237915
    y: -11.1971330643
