header: 
  seq: 0
  stamp: 
    secs: 1723698435
    nsecs: 393827545
  frame_id: "map"
pose: 
  position: 
    x: -1.1181653738
    y: -0.135062530637
    z: -0.723547339439
  orientation: 
    x: -0.0498732272192
    y: -0.00277400283604
    z: 0.841446309943
    w: -0.538027122489
---
header: 
  seq: 1
  stamp: 
    secs: 1723698435
    nsecs: 425497347
  frame_id: "map"
pose: 
  position: 
    x: -1.11862325668
    y: -0.136025086045
    z: -0.724575221539
  orientation: 
    x: -0.0499090941872
    y: -0.00280821027197
    z: 0.841458174281
    w: -0.538005058614
---
header: 
  seq: 2
  stamp: 
    secs: 1723698435
    nsecs: 458104403
  frame_id: "map"
pose: 
  position: 
    x: -1.11924803257
    y: -0.137391701341
    z: -0.725943446159
  orientation: 
    x: -0.0499234899702
    y: -0.00284875817441
    z: 0.841456909875
    w: -0.538005395789
---
header: 
  seq: 3
  stamp: 
    secs: 1723698435
    nsecs: 492550705
  frame_id: "map"
pose: 
  position: 
    x: -1.11965274811
    y: -0.138358458877
    z: -0.726963937283
  orientation: 
    x: -0.0499350224016
    y: -0.0028722023589
    z: 0.841458037304
    w: -0.538002498193
---
header: 
  seq: 4
  stamp: 
    secs: 1723698435
    nsecs: 524560317
  frame_id: "map"
pose: 
  position: 
    x: -1.12003004551
    y: -0.139360621572
    z: -0.728162229061
  orientation: 
    x: -0.0499520681677
    y: -0.00291608513073
    z: 0.841455192391
    w: -0.538005174518
---
header: 
  seq: 5
  stamp: 
    secs: 1723698435
    nsecs: 559604512
  frame_id: "map"
pose: 
  position: 
    x: -1.12048149109
    y: -0.140647530556
    z: -0.729888081551
  orientation: 
    x: -0.0499159035375
    y: -0.00300358989077
    z: 0.841449291833
    w: -0.53801731281
---
header: 
  seq: 6
  stamp: 
    secs: 1723698435
    nsecs: 591412139
  frame_id: "map"
pose: 
  position: 
    x: -1.12079453468
    y: -0.141567915678
    z: -0.731295824051
  orientation: 
    x: -0.049954114924
    y: -0.0030655194163
    z: 0.84145718383
    w: -0.538000907149
---
header: 
  seq: 7
  stamp: 
    secs: 1723698435
    nsecs: 624426462
  frame_id: "map"
pose: 
  position: 
    x: -1.12116825581
    y: -0.142581909895
    z: -0.732325017452
  orientation: 
    x: -0.0500107471175
    y: -0.00305089709405
    z: 0.841453295783
    w: -0.538001844917
---
header: 
  seq: 8
  stamp: 
    secs: 1723698435
    nsecs: 657063663
  frame_id: "map"
pose: 
  position: 
    x: -1.12155401707
    y: -0.143552988768
    z: -0.733091533184
  orientation: 
    x: -0.0500566344988
    y: -0.00304480687444
    z: 0.841432390946
    w: -0.53803042048
---
header: 
  seq: 9
  stamp: 
    secs: 1723698435
    nsecs: 694666628
  frame_id: "map"
pose: 
  position: 
    x: -1.12203514576
    y: -0.144802615047
    z: -0.73424243927
  orientation: 
    x: -0.0500909578386
    y: -0.00306752402579
    z: 0.841413772576
    w: -0.538056035227
---
header: 
  seq: 10
  stamp: 
    secs: 1723698435
    nsecs: 725115781
  frame_id: "map"
pose: 
  position: 
    x: -1.1226439476
    y: -0.145698294044
    z: -0.735182225704
  orientation: 
    x: -0.0501395821309
    y: -0.00306105185036
    z: 0.841404300072
    w: -0.538066519256
---
header: 
  seq: 11
  stamp: 
    secs: 1723698435
    nsecs: 758190521
  frame_id: "map"
pose: 
  position: 
    x: -1.12331664562
    y: -0.146825641394
    z: -0.736795663834
  orientation: 
    x: -0.0502000681268
    y: -0.00298217929173
    z: 0.841385660628
    w: -0.538090384909
---
header: 
  seq: 12
  stamp: 
    secs: 1723698435
    nsecs: 792490262
  frame_id: "map"
pose: 
  position: 
    x: -1.12375473976
    y: -0.147668644786
    z: -0.738170206547
  orientation: 
    x: -0.0502205172509
    y: -0.0029614140663
    z: 0.841380971791
    w: -0.538095916683
---
header: 
  seq: 13
  stamp: 
    secs: 1723698435
    nsecs: 824546018
  frame_id: "map"
pose: 
  position: 
    x: -1.12402713299
    y: -0.148661091924
    z: -0.73948931694
  orientation: 
    x: -0.0501790921672
    y: -0.0029713185757
    z: 0.841361204919
    w: -0.538130687833
---
header: 
  seq: 14
  stamp: 
    secs: 1723698435
    nsecs: 857628790
  frame_id: "map"
pose: 
  position: 
    x: -1.12424612045
    y: -0.150080248713
    z: -0.74113047123
  orientation: 
    x: -0.0501107273447
    y: -0.00304690631433
    z: 0.841358834159
    w: -0.538140307851
---
header: 
  seq: 15
  stamp: 
    secs: 1723698435
    nsecs: 892083220
  frame_id: "map"
pose: 
  position: 
    x: -1.12437021732
    y: -0.151122644544
    z: -0.742354989052
  orientation: 
    x: -0.0501212930328
    y: -0.00310664156956
    z: 0.841351595438
    w: -0.53815024397
---
header: 
  seq: 16
  stamp: 
    secs: 1723698435
    nsecs: 925759821
  frame_id: "map"
pose: 
  position: 
    x: -1.12464630604
    y: -0.15209954977
    z: -0.743272483349
  orientation: 
    x: -0.0501371112719
    y: -0.00316002845573
    z: 0.841354693231
    w: -0.538143605842
---
header: 
  seq: 17
  stamp: 
    secs: 1723698435
    nsecs: 956074956
  frame_id: "map"
pose: 
  position: 
    x: -1.12498772144
    y: -0.153060734272
    z: -0.74413561821
  orientation: 
    x: -0.0501501109404
    y: -0.00315809760324
    z: 0.841354882892
    w: -0.538142151775
---
header: 
  seq: 18
  stamp: 
    secs: 1723698435
    nsecs: 995040588
  frame_id: "map"
pose: 
  position: 
    x: -1.12540602684
    y: -0.15420819819
    z: -0.745210826397
  orientation: 
    x: -0.0501448847312
    y: -0.00318098861033
    z: 0.841343840418
    w: -0.538159937745
---
header: 
  seq: 19
  stamp: 
    secs: 1723698436
    nsecs:  25159210
  frame_id: "map"
pose: 
  position: 
    x: -1.12558400631
    y: -0.155151039362
    z: -0.745904028416
  orientation: 
    x: -0.0501388603661
    y: -0.00319021613598
    z: 0.841349066627
    w: -0.538152098432
---
header: 
  seq: 20
  stamp: 
    secs: 1723698436
    nsecs:  56354321
  frame_id: "map"
pose: 
  position: 
    x: -1.12568497658
    y: -0.156126484275
    z: -0.746544539928
  orientation: 
    x: -0.0501291139074
    y: -0.0031702964817
    z: 0.841352680719
    w: -0.538147557109
---
header: 
  seq: 21
  stamp: 
    secs: 1723698436
    nsecs:  95868982
  frame_id: "map"
pose: 
  position: 
    x: -1.12581408024
    y: -0.157357662916
    z: -0.747415304184
  orientation: 
    x: -0.050166261086
    y: -0.00316024972669
    z: 0.841356916477
    w: -0.538137589379
---
header: 
  seq: 22
  stamp: 
    secs: 1723698436
    nsecs: 125152174
  frame_id: "map"
pose: 
  position: 
    x: -1.12609601021
    y: -0.158476695418
    z: -0.748218953609
  orientation: 
    x: -0.0502308748389
    y: -0.00313380521343
    z: 0.841369708046
    w: -0.5381115637
---
header: 
  seq: 23
  stamp: 
    secs: 1723698436
    nsecs: 158238851
  frame_id: "map"
pose: 
  position: 
    x: -1.12653076649
    y: -0.159969568253
    z: -0.74929279089
  orientation: 
    x: -0.0502120378318
    y: -0.00315998630888
    z: 0.841381119305
    w: -0.538095516287
---
header: 
  seq: 24
  stamp: 
    secs: 1723698436
    nsecs: 192475680
  frame_id: "map"
pose: 
  position: 
    x: -1.1267939806
    y: -0.161040097475
    z: -0.750186383724
  orientation: 
    x: -0.0502353028922
    y: -0.00319367744591
    z: 0.841384680714
    w: -0.538087487313
---
header: 
  seq: 25
  stamp: 
    secs: 1723698436
    nsecs: 225156722
  frame_id: "map"
pose: 
  position: 
    x: -1.12706303596
    y: -0.16222089529
    z: -0.751044094563
  orientation: 
    x: -0.0502018699046
    y: -0.00317095502621
    z: 0.841404426512
    w: -0.538059817907
---
header: 
  seq: 26
  stamp: 
    secs: 1723698436
    nsecs: 258296744
  frame_id: "map"
pose: 
  position: 
    x: -1.12734687328
    y: -0.163791596889
    z: -0.752171874046
  orientation: 
    x: -0.0501834938786
    y: -0.00320358195531
    z: 0.841436890122
    w: -0.538010664145
---
header: 
  seq: 27
  stamp: 
    secs: 1723698436
    nsecs: 292440132
  frame_id: "map"
pose: 
  position: 
    x: -1.12755310535
    y: -0.164952754974
    z: -0.753209412098
  orientation: 
    x: -0.0501811784362
    y: -0.00321062838155
    z: 0.841443833816
    w: -0.537999927235
---
header: 
  seq: 28
  stamp: 
    secs: 1723698436
    nsecs: 324635058
  frame_id: "map"
pose: 
  position: 
    x: -1.12776625156
    y: -0.166158810258
    z: -0.753923714161
  orientation: 
    x: -0.050197215312
    y: -0.00313476405423
    z: 0.841464422551
    w: -0.537966610151
---
header: 
  seq: 29
  stamp: 
    secs: 1723698436
    nsecs: 357146787
  frame_id: "map"
pose: 
  position: 
    x: -1.12792134285
    y: -0.167280584574
    z: -0.754736065865
  orientation: 
    x: -0.0502009532106
    y: -0.00310771894838
    z: 0.841485137727
    w: -0.537934178151
---
header: 
  seq: 30
  stamp: 
    secs: 1723698436
    nsecs: 391484193
  frame_id: "map"
pose: 
  position: 
    x: -1.12808287144
    y: -0.168731465936
    z: -0.755747258663
  orientation: 
    x: -0.0501914675356
    y: -0.00309150031423
    z: 0.84148878343
    w: -0.537929268044
---
header: 
  seq: 31
  stamp: 
    secs: 1723698436
    nsecs: 426144258
  frame_id: "map"
pose: 
  position: 
    x: -1.12834382057
    y: -0.170103192329
    z: -0.756656110287
  orientation: 
    x: -0.0502251191599
    y: -0.00306839067036
    z: 0.841506411349
    w: -0.537898743189
---
header: 
  seq: 32
  stamp: 
    secs: 1723698436
    nsecs: 456175488
  frame_id: "map"
pose: 
  position: 
    x: -1.12853348255
    y: -0.171456575394
    z: -0.757658779621
  orientation: 
    x: -0.0502765699252
    y: -0.00305004098619
    z: 0.841514282273
    w: -0.537881599958
---
header: 
  seq: 33
  stamp: 
    secs: 1723698436
    nsecs: 493867479
  frame_id: "map"
pose: 
  position: 
    x: -1.12875545025
    y: -0.173038929701
    z: -0.758850574493
  orientation: 
    x: -0.0502878204996
    y: -0.0030579777646
    z: 0.841508339567
    w: -0.537889987181
---
header: 
  seq: 34
  stamp: 
    secs: 1723698436
    nsecs: 525225855
  frame_id: "map"
pose: 
  position: 
    x: -1.12903928757
    y: -0.174195036292
    z: -0.760434448719
  orientation: 
    x: -0.050300965048
    y: -0.00301307556587
    z: 0.84150041596
    w: -0.53790136683
---
header: 
  seq: 35
  stamp: 
    secs: 1723698436
    nsecs: 558322676
  frame_id: "map"
pose: 
  position: 
    x: -1.12941145897
    y: -0.175704360008
    z: -0.763085722923
  orientation: 
    x: -0.0503130032416
    y: -0.00296839990644
    z: 0.841507127845
    w: -0.537889850203
---
header: 
  seq: 36
  stamp: 
    secs: 1723698436
    nsecs: 592451728
  frame_id: "map"
pose: 
  position: 
    x: -1.12963175774
    y: -0.176811277866
    z: -0.765094280243
  orientation: 
    x: -0.0503186008699
    y: -0.00293538048481
    z: 0.841509024454
    w: -0.537886604896
---
header: 
  seq: 37
  stamp: 
    secs: 1723698436
    nsecs: 624596062
  frame_id: "map"
pose: 
  position: 
    x: -1.12995755672
    y: -0.178019464016
    z: -0.766601145267
  orientation: 
    x: -0.0502956650818
    y: -0.00293275420932
    z: 0.841492545036
    w: -0.537914716844
---
header: 
  seq: 38
  stamp: 
    secs: 1723698436
    nsecs: 657289744
  frame_id: "map"
pose: 
  position: 
    x: -1.13021421432
    y: -0.179170787334
    z: -0.768159091473
  orientation: 
    x: -0.0502551724971
    y: -0.00302712627149
    z: 0.841490216422
    w: -0.53792142873
---
header: 
  seq: 39
  stamp: 
    secs: 1723698436
    nsecs: 691644206
  frame_id: "map"
pose: 
  position: 
    x: -1.13049292564
    y: -0.180635735393
    z: -0.770285487175
  orientation: 
    x: -0.0502310486947
    y: -0.00305081806871
    z: 0.841487792979
    w: -0.537927308215
---
header: 
  seq: 40
  stamp: 
    secs: 1723698436
    nsecs: 724581186
  frame_id: "map"
pose: 
  position: 
    x: -1.13091945648
    y: -0.181584939361
    z: -0.772696316242
  orientation: 
    x: -0.0501963908143
    y: -0.00300602913963
    z: 0.841483262192
    w: -0.537938076735
---
header: 
  seq: 41
  stamp: 
    secs: 1723698436
    nsecs: 756287949
  frame_id: "map"
pose: 
  position: 
    x: -1.13140928745
    y: -0.182479217649
    z: -0.775441408157
  orientation: 
    x: -0.0501940253224
    y: -0.00296822868487
    z: 0.841475180534
    w: -0.537950963134
---
header: 
  seq: 42
  stamp: 
    secs: 1723698436
    nsecs: 793859939
  frame_id: "map"
pose: 
  position: 
    x: -1.13195896149
    y: -0.183641657233
    z: -0.779011547565
  orientation: 
    x: -0.0501594675408
    y: -0.0029788733983
    z: 0.841468584552
    w: -0.537964471199
---
header: 
  seq: 43
  stamp: 
    secs: 1723698436
    nsecs: 825154442
  frame_id: "map"
pose: 
  position: 
    x: -1.13219881058
    y: -0.184537768364
    z: -0.782356083393
  orientation: 
    x: -0.0501448294135
    y: -0.00296423527098
    z: 0.841460492358
    w: -0.537978548246
---
header: 
  seq: 44
  stamp: 
    secs: 1723698436
    nsecs: 858638786
  frame_id: "map"
pose: 
  position: 
    x: -1.13243842125
    y: -0.185705542564
    z: -0.786594927311
  orientation: 
    x: -0.0501345429483
    y: -0.00298477395709
    z: 0.84143859707
    w: -0.538013677644
---
header: 
  seq: 45
  stamp: 
    secs: 1723698436
    nsecs: 892450588
  frame_id: "map"
pose: 
  position: 
    x: -1.13257133961
    y: -0.186471760273
    z: -0.789409279823
  orientation: 
    x: -0.0501377276695
    y: -0.0029743768564
    z: 0.841434456142
    w: -0.538020010208
---
header: 
  seq: 46
  stamp: 
    secs: 1723698436
    nsecs: 925224271
  frame_id: "map"
pose: 
  position: 
    x: -1.13280391693
    y: -0.187262386084
    z: -0.792933166027
  orientation: 
    x: -0.0501183295825
    y: -0.00292096099427
    z: 0.841433960916
    w: -0.538022781364
---
header: 
  seq: 47
  stamp: 
    secs: 1723698436
    nsecs: 958843144
  frame_id: "map"
pose: 
  position: 
    x: -1.13307321072
    y: -0.188240781426
    z: -0.797369658947
  orientation: 
    x: -0.0501615775174
    y: -0.00282954447985
    z: 0.841429893746
    w: -0.538025752716
---
header: 
  seq: 48
  stamp: 
    secs: 1723698436
    nsecs: 992477889
  frame_id: "map"
pose: 
  position: 
    x: -1.13323032856
    y: -0.188944756985
    z: -0.800680220127
  orientation: 
    x: -0.0501620753771
    y: -0.00276609503359
    z: 0.84142555262
    w: -0.53803279124
---
header: 
  seq: 49
  stamp: 
    secs: 1723698437
    nsecs:  24683503
  frame_id: "map"
pose: 
  position: 
    x: -1.13357508183
    y: -0.189909338951
    z: -0.805083334446
  orientation: 
    x: -0.0502278929494
    y: -0.00271855865683
    z: 0.841424962564
    w: -0.538027733618
---
header: 
  seq: 50
  stamp: 
    secs: 1723698437
    nsecs:  57189025
  frame_id: "map"
pose: 
  position: 
    x: -1.13383841515
    y: -0.190798565745
    z: -0.809117674828
  orientation: 
    x: -0.0502195584101
    y: -0.00271867456066
    z: 0.841415879918
    w: -0.538042632529
---
header: 
  seq: 51
  stamp: 
    secs: 1723698437
    nsecs:  92696104
  frame_id: "map"
pose: 
  position: 
    x: -1.13403975964
    y: -0.191955208778
    z: -0.81403529644
  orientation: 
    x: -0.0501978080021
    y: -0.00277372097899
    z: 0.841418956638
    w: -0.538039640103
---
header: 
  seq: 52
  stamp: 
    secs: 1723698437
    nsecs: 124552469
  frame_id: "map"
pose: 
  position: 
    x: -1.13433611393
    y: -0.193073183298
    z: -0.817712724209
  orientation: 
    x: -0.0500982492434
    y: -0.00289274104501
    z: 0.841424182848
    w: -0.538040230159
---
header: 
  seq: 53
  stamp: 
    secs: 1723698437
    nsecs: 156160160
  frame_id: "map"
pose: 
  position: 
    x: -1.13466238976
    y: -0.194257602096
    z: -0.821501076221
  orientation: 
    x: -0.0500427813565
    y: -0.00302031692128
    z: 0.84142327669
    w: -0.538046109644
---
header: 
  seq: 54
  stamp: 
    secs: 1723698437
    nsecs: 193931000
  frame_id: "map"
pose: 
  position: 
    x: -1.13500118256
    y: -0.195761620998
    z: -0.826276242733
  orientation: 
    x: -0.0500302584742
    y: -0.003085149311
    z: 0.841423129176
    w: -0.538047015802
---
header: 
  seq: 55
  stamp: 
    secs: 1723698437
    nsecs: 229541408
  frame_id: "map"
pose: 
  position: 
    x: -1.13547992706
    y: -0.197711601853
    z: -0.831179201603
  orientation: 
    x: -0.0500171376334
    y: -0.00311632480801
    z: 0.841429914819
    w: -0.538037532761
---
header: 
  seq: 56
  stamp: 
    secs: 1723698437
    nsecs: 256136038
  frame_id: "map"
pose: 
  position: 
    x: -1.1356960535
    y: -0.198620185256
    z: -0.833381593227
  orientation: 
    x: -0.0500756111174
    y: -0.00306596459239
    z: 0.841453991206
    w: -0.537994574585
---
header: 
  seq: 57
  stamp: 
    secs: 1723698437
    nsecs: 289812192
  frame_id: "map"
pose: 
  position: 
    x: -1.13607788086
    y: -0.200337231159
    z: -0.837533652782
  orientation: 
    x: -0.0500993292564
    y: -0.00300326588687
    z: 0.841468584552
    w: -0.537970034583
---
header: 
  seq: 58
  stamp: 
    secs: 1723698437
    nsecs: 325142374
  frame_id: "map"
pose: 
  position: 
    x: -1.13661050797
    y: -0.201860234141
    z: -0.840841174126
  orientation: 
    x: -0.05015697034
    y: -0.00290657047968
    z: 0.841481323437
    w: -0.537945325993
---
header: 
  seq: 59
  stamp: 
    secs: 1723698437
    nsecs: 358894817
  frame_id: "map"
pose: 
  position: 
    x: -1.13713502884
    y: -0.203847452998
    z: -0.845073282719
  orientation: 
    x: -0.0501553766623
    y: -0.0028665178027
    z: 0.841510689254
    w: -0.537899607199
---
header: 
  seq: 60
  stamp: 
    secs: 1723698437
    nsecs: 392419674
  frame_id: "map"
pose: 
  position: 
    x: -1.13745141029
    y: -0.205262705684
    z: -0.847969949245
  orientation: 
    x: -0.0501390526611
    y: -0.0028704506305
    z: 0.841514398177
    w: -0.53789530822
---
header: 
  seq: 61
  stamp: 
    secs: 1723698437
    nsecs: 424591465
  frame_id: "map"
pose: 
  position: 
    x: -1.13838684559
    y: -0.20700353384
    z: -0.85129827261
  orientation: 
    x: -0.050180762236
    y: -0.00283879834727
    z: 0.841519624386
    w: -0.537883507103
---
header: 
  seq: 62
  stamp: 
    secs: 1723698437
    nsecs: 457558429
  frame_id: "map"
pose: 
  position: 
    x: -1.13921380043
    y: -0.20862787962
    z: -0.854473054409
  orientation: 
    x: -0.0502260938058
    y: -0.00280544701921
    z: 0.841533279965
    w: -0.537858050406
---
header: 
  seq: 63
  stamp: 
    secs: 1723698437
    nsecs: 491589146
  frame_id: "map"
pose: 
  position: 
    x: -1.14018905163
    y: -0.210622876883
    z: -0.858502984047
  orientation: 
    x: -0.0502215498487
    y: -0.00281123430835
    z: 0.841537094255
    w: -0.537852550243
---
header: 
  seq: 64
  stamp: 
    secs: 1723698437
    nsecs: 524490830
  frame_id: "map"
pose: 
  position: 
    x: -1.14125061035
    y: -0.21250782907
    z: -0.861794412136
  orientation: 
    x: -0.0502226509351
    y: -0.00286342791187
    z: 0.841533395869
    w: -0.537857934502
---
header: 
  seq: 65
  stamp: 
    secs: 1723698437
    nsecs: 556328091
  frame_id: "map"
pose: 
  position: 
    x: -1.14221656322
    y: -0.21426269412
    z: -0.864807367325
  orientation: 
    x: -0.0502116348026
    y: -0.00285240124263
    z: 0.841540908545
    w: -0.537847134373
---
header: 
  seq: 66
  stamp: 
    secs: 1723698437
    nsecs: 593925714
  frame_id: "map"
pose: 
  position: 
    x: -1.14336895943
    y: -0.216443359852
    z: -0.868738889694
  orientation: 
    x: -0.0502272712834
    y: -0.00284742264615
    z: 0.841540550296
    w: -0.537846312509
---
header: 
  seq: 67
  stamp: 
    secs: 1723698437
    nsecs: 625491228
  frame_id: "map"
pose: 
  position: 
    x: -1.14421021938
    y: -0.218723773956
    z: -0.871944785118
  orientation: 
    x: -0.0502179937083
    y: -0.00280770450978
    z: 0.84154137216
    w: -0.537846080701
---
header: 
  seq: 68
  stamp: 
    secs: 1723698437
    nsecs: 658225391
  frame_id: "map"
pose: 
  position: 
    x: -1.14496850967
    y: -0.220893263817
    z: -0.874943137169
  orientation: 
    x: -0.0502313674302
    y: -0.00280341870213
    z: 0.841549348451
    w: -0.537832541026
---
header: 
  seq: 69
  stamp: 
    secs: 1723698437
    nsecs: 692466317
  frame_id: "map"
pose: 
  position: 
    x: -1.14585721493
    y: -0.223584190011
    z: -0.878953278065
  orientation: 
    x: -0.0502330269624
    y: -0.00280272327913
    z: 0.841556249997
    w: -0.537821593382
---
header: 
  seq: 70
  stamp: 
    secs: 1723698437
    nsecs: 725196896
  frame_id: "map"
pose: 
  position: 
    x: -1.14700329304
    y: -0.225757688284
    z: -0.882562220097
  orientation: 
    x: -0.0502891033443
    y: -0.00280009436945
    z: 0.841550275682
    w: -0.537825628943
---
header: 
  seq: 71
  stamp: 
    secs: 1723698437
    nsecs: 756187462
  frame_id: "map"
pose: 
  position: 
    x: -1.14805912971
    y: -0.227777257562
    z: -0.885841369629
  orientation: 
    x: -0.0502884816783
    y: -0.00284013914389
    z: 0.841546977691
    w: -0.537830528514
---
header: 
  seq: 72
  stamp: 
    secs: 1723698437
    nsecs: 793938975
  frame_id: "map"
pose: 
  position: 
    x: -1.14929509163
    y: -0.230356290936
    z: -0.890029907227
  orientation: 
    x: -0.0502672554717
    y: -0.0028818908657
    z: 0.84154460693
    w: -0.537836102435
---
header: 
  seq: 73
  stamp: 
    secs: 1723698437
    nsecs: 825309512
  frame_id: "map"
pose: 
  position: 
    x: -1.14914762974
    y: -0.233519926667
    z: -0.893025696278
  orientation: 
    x: -0.0502842248466
    y: -0.00290626754921
    z: 0.841544491027
    w: -0.537834448171
---
header: 
  seq: 74
  stamp: 
    secs: 1723698437
    nsecs: 858322781
  frame_id: "map"
pose: 
  position: 
    x: -1.14855003357
    y: -0.237109348178
    z: -0.89602124691
  orientation: 
    x: -0.0503092758797
    y: -0.00286557476697
    z: 0.841545144303
    w: -0.537831350378
---
header: 
  seq: 75
  stamp: 
    secs: 1723698437
    nsecs: 892484506
  frame_id: "map"
pose: 
  position: 
    x: -1.14783418179
    y: -0.241589203477
    z: -0.899822235107
  orientation: 
    x: -0.0503184823319
    y: -0.00281699262152
    z: 0.841548905909
    w: -0.537824975667
---
header: 
  seq: 76
  stamp: 
    secs: 1723698437
    nsecs: 924836139
  frame_id: "map"
pose: 
  position: 
    x: -1.14641475677
    y: -0.24627250433
    z: -0.901420652866
  orientation: 
    x: -0.0503050058771
    y: -0.00278120467878
    z: 0.841546345488
    w: -0.537830402074
---
header: 
  seq: 77
  stamp: 
    secs: 1723698437
    nsecs: 957208027
  frame_id: "map"
pose: 
  position: 
    x: -1.14508390427
    y: -0.250677138567
    z: -0.903058469296
  orientation: 
    x: -0.0503113147335
    y: -0.00282089910755
    z: 0.841537979339
    w: -0.537842730027
---
header: 
  seq: 78
  stamp: 
    secs: 1723698437
    nsecs: 991504313
  frame_id: "map"
pose: 
  position: 
    x: -1.14343655109
    y: -0.256115138531
    z: -0.905225515366
  orientation: 
    x: -0.0503127055795
    y: -0.00282118886713
    z: 0.841543395209
    w: -0.537834026703
---
header: 
  seq: 79
  stamp: 
    secs: 1723698438
    nsecs:  24527567
  frame_id: "map"
pose: 
  position: 
    x: -1.14146208763
    y: -0.260778307915
    z: -0.906250536442
  orientation: 
    x: -0.0503452324098
    y: -0.00280844998217
    z: 0.841549327378
    w: -0.537821772506
---
header: 
  seq: 80
  stamp: 
    secs: 1723698438
    nsecs:  56179003
  frame_id: "map"
pose: 
  position: 
    x: -1.13922357559
    y: -0.265552252531
    z: -0.907037973404
  orientation: 
    x: -0.050321782957
    y: -0.002771945543
    z: 0.841545776506
    w: -0.537829706651
---
header: 
  seq: 81
  stamp: 
    secs: 1723698438
    nsecs:  94935804
  frame_id: "map"
pose: 
  position: 
    x: -1.1364877224
    y: -0.271506279707
    z: -0.908269107342
  orientation: 
    x: -0.0503120812793
    y: -0.00273863636179
    z: 0.841549011276
    w: -0.53782579753
---
header: 
  seq: 82
  stamp: 
    secs: 1723698438
    nsecs: 125179645
  frame_id: "map"
pose: 
  position: 
    x: -1.13332509995
    y: -0.276574790478
    z: -0.909069895744
  orientation: 
    x: -0.0503264006711
    y: -0.00274644406547
    z: 0.841546577296
    w: -0.537828231511
---
header: 
  seq: 83
  stamp: 
    secs: 1723698438
    nsecs: 156194084
  frame_id: "map"
pose: 
  position: 
    x: -1.13038361073
    y: -0.281308919191
    z: -0.909942150116
  orientation: 
    x: -0.0503159824969
    y: -0.00273646843327
    z: 0.841552193363
    w: -0.537820508101
---
header: 
  seq: 84
  stamp: 
    secs: 1723698438
    nsecs: 191165544
  frame_id: "map"
pose: 
  position: 
    x: -1.12675833702
    y: -0.287170737982
    z: -0.911242902279
  orientation: 
    x: -0.0503025323839
    y: -0.00275371176266
    z: 0.841536672786
    w: -0.537845806747
---
header: 
  seq: 85
  stamp: 
    secs: 1723698438
    nsecs: 225243238
  frame_id: "map"
pose: 
  position: 
    x: -1.12351667881
    y: -0.292622119188
    z: -0.911610901356
  orientation: 
    x: -0.0502547510286
    y: -0.00282002192626
    z: 0.8415522039
    w: -0.53782563948
---
header: 
  seq: 86
  stamp: 
    secs: 1723698438
    nsecs: 257191060
  frame_id: "map"
pose: 
  position: 
    x: -1.12048518658
    y: -0.297819852829
    z: -0.912235438824
  orientation: 
    x: -0.0501348037319
    y: -0.00291522902287
    z: 0.841561202252
    w: -0.537822373099
---
header: 
  seq: 87
  stamp: 
    secs: 1723698438
    nsecs: 291496052
  frame_id: "map"
pose: 
  position: 
    x: -1.11679565907
    y: -0.304094940424
    z: -0.913050174713
  orientation: 
    x: -0.0501151975448
    y: -0.00296726720989
    z: 0.84155300469
    w: -0.537836639807
---
header: 
  seq: 88
  stamp: 
    secs: 1723698438
    nsecs: 327607105
  frame_id: "map"
pose: 
  position: 
    x: -1.11348974705
    y: -0.309331029654
    z: -0.913141787052
  orientation: 
    x: -0.0500636071681
    y: -0.0029555266784
    z: 0.841557377426
    w: -0.537834627295
---
header: 
  seq: 89
  stamp: 
    secs: 1723698438
    nsecs: 356199062
  frame_id: "map"
pose: 
  position: 
    x: -1.11043035984
    y: -0.31418594718
    z: -0.913280308247
  orientation: 
    x: -0.0500688518165
    y: -0.00291458891761
    z: 0.841567819307
    w: -0.537818116267
---
header: 
  seq: 90
  stamp: 
    secs: 1723698438
    nsecs: 394599668
  frame_id: "map"
pose: 
  position: 
    x: -1.10669028759
    y: -0.320106655359
    z: -0.913534462452
  orientation: 
    x: -0.0500419041753
    y: -0.00289728763629
    z: 0.841569747526
    w: -0.537817789629
---
header: 
  seq: 91
  stamp: 
    secs: 1723698438
    nsecs: 425179223
  frame_id: "map"
pose: 
  position: 
    x: -1.10286772251
    y: -0.325429350138
    z: -0.913544356823
  orientation: 
    x: -0.0499365423223
    y: -0.00290951549072
    z: 0.841580263164
    w: -0.53781089862
---
header: 
  seq: 92
  stamp: 
    secs: 1723698438
    nsecs: 458171533
  frame_id: "map"
pose: 
  position: 
    x: -1.09936952591
    y: -0.330342590809
    z: -0.913501143456
  orientation: 
    x: -0.049888139301
    y: -0.00296914537883
    z: 0.841584656973
    w: -0.537808274978
---
header: 
  seq: 93
  stamp: 
    secs: 1723698438
    nsecs: 492599790
  frame_id: "map"
pose: 
  position: 
    x: -1.0950729847
    y: -0.336450248957
    z: -0.91366481781
  orientation: 
    x: -0.0498846569176
    y: -0.00300505976211
    z: 0.84158934581
    w: -0.537801141624
---
header: 
  seq: 94
  stamp: 
    secs: 1723698438
    nsecs: 524701693
  frame_id: "map"
pose: 
  position: 
    x: -1.09116566181
    y: -0.341606378555
    z: -0.913846194744
  orientation: 
    x: -0.0498860187877
    y: -0.00305314668209
    z: 0.841604402772
    w: -0.537777065237
---
header: 
  seq: 95
  stamp: 
    secs: 1723698438
    nsecs: 557211471
  frame_id: "map"
pose: 
  position: 
    x: -1.08751583099
    y: -0.346394181252
    z: -0.914067566395
  orientation: 
    x: -0.0498269341744
    y: -0.00301050987646
    z: 0.841620123546
    w: -0.537758141302
---
header: 
  seq: 96
  stamp: 
    secs: 1723698438
    nsecs: 592560886
  frame_id: "map"
pose: 
  position: 
    x: -1.08297240734
    y: -0.352431327105
    z: -0.914880216122
  orientation: 
    x: -0.0497995387229
    y: -0.0029707074464
    z: 0.841620408038
    w: -0.537760469915
---
header: 
  seq: 97
  stamp: 
    secs: 1723698438
    nsecs: 624624005
  frame_id: "map"
pose: 
  position: 
    x: -1.07920694351
    y: -0.357148319483
    z: -0.915987253189
  orientation: 
    x: -0.0498180886046
    y: -0.0029414733386
    z: 0.841627530855
    w: -0.537747868008
---
header: 
  seq: 98
  stamp: 
    secs: 1723698438
    nsecs: 656483090
  frame_id: "map"
pose: 
  position: 
    x: -1.07570755482
    y: -0.361596077681
    z: -0.916957974434
  orientation: 
    x: -0.0497665403747
    y: -0.00295689118262
    z: 0.841646739281
    w: -0.537722421848
---
header: 
  seq: 99
  stamp: 
    secs: 1723698438
    nsecs: 694052778
  frame_id: "map"
pose: 
  position: 
    x: -1.07134819031
    y: -0.367127418518
    z: -0.918214678764
  orientation: 
    x: -0.0497378331025
    y: -0.00299420168027
    z: 0.841646444253
    w: -0.537725245687
---
header: 
  seq: 100
  stamp: 
    secs: 1723698438
    nsecs: 725239250
  frame_id: "map"
pose: 
  position: 
    x: -1.0676112175
    y: -0.371867805719
    z: -0.917334735394
  orientation: 
    x: -0.0497668485735
    y: -0.0030230116854
    z: 0.84164574883
    w: -0.537723496592
---
header: 
  seq: 101
  stamp: 
    secs: 1723698438
    nsecs: 760523801
  frame_id: "map"
pose: 
  position: 
    x: -1.06410717964
    y: -0.376443833113
    z: -0.916792750359
  orientation: 
    x: -0.049811569014
    y: -0.00296558923848
    z: 0.841643546657
    w: -0.537723169954
---
header: 
  seq: 102
  stamp: 
    secs: 1723698438
    nsecs: 794942201
  frame_id: "map"
pose: 
  position: 
    x: -1.05984091759
    y: -0.381912857294
    z: -0.916200399399
  orientation: 
    x: -0.0497939806072
    y: -0.00295495506177
    z: 0.841658266444
    w: -0.537701790965
---
header: 
  seq: 103
  stamp: 
    secs: 1723698438
    nsecs: 824572918
  frame_id: "map"
pose: 
  position: 
    x: -1.05651557446
    y: -0.386322617531
    z: -0.915118932724
  orientation: 
    x: -0.0497326543085
    y: -0.00297872325015
    z: 0.841660616131
    w: -0.537703655963
---
header: 
  seq: 104
  stamp: 
    secs: 1723698438
    nsecs: 856243842
  frame_id: "map"
pose: 
  position: 
    x: -1.05347704887
    y: -0.390483319759
    z: -0.914211988449
  orientation: 
    x: -0.049797794897
    y: -0.00305648681983
    z: 0.841653293116
    w: -0.537708787342
---
header: 
  seq: 105
  stamp: 
    secs: 1723698438
    nsecs: 893885594
  frame_id: "map"
pose: 
  position: 
    x: -1.04980027676
    y: -0.395663708448
    z: -0.913237690926
  orientation: 
    x: -0.0498555966656
    y: -0.00302948386083
    z: 0.841654905233
    w: -0.537701021785
---
header: 
  seq: 106
  stamp: 
    secs: 1723698438
    nsecs: 925793736
  frame_id: "map"
pose: 
  position: 
    x: -1.04669368267
    y: -0.399604260921
    z: -0.912975430489
  orientation: 
    x: -0.0499894129096
    y: -0.00281429258904
    z: 0.84164408403
    w: -0.537706785367
---
header: 
  seq: 107
  stamp: 
    secs: 1723698438
    nsecs: 958380347
  frame_id: "map"
pose: 
  position: 
    x: -1.04376101494
    y: -0.403262943029
    z: -0.912816047668
  orientation: 
    x: -0.0500876598477
    y: -0.00260540490529
    z: 0.841648909844
    w: -0.537690917079
---
header: 
  seq: 108
  stamp: 
    secs: 1723698438
    nsecs: 992536921
  frame_id: "map"
pose: 
  position: 
    x: -1.04005479813
    y: -0.408007472754
    z: -0.912710011005
  orientation: 
    x: -0.050051163311
    y: -0.00256653234007
    z: 0.841652355349
    w: -0.537689073154
---
header: 
  seq: 109
  stamp: 
    secs: 1723698439
    nsecs:  25431791
  frame_id: "map"
pose: 
  position: 
    x: -1.03687822819
    y: -0.411672592163
    z: -0.912366986275
  orientation: 
    x: -0.0499628498583
    y: -0.00265502491688
    z: 0.841669056037
    w: -0.537670939472
---
header: 
  seq: 110
  stamp: 
    secs: 1723698439
    nsecs:  58332261
  frame_id: "map"
pose: 
  position: 
    x: -1.03382980824
    y: -0.415185689926
    z: -0.91219162941
  orientation: 
    x: -0.0499137408773
    y: -0.00275624320775
    z: 0.841662660253
    w: -0.537684921689
---
header: 
  seq: 111
  stamp: 
    secs: 1723698439
    nsecs:  93591244
  frame_id: "map"
pose: 
  position: 
    x: -1.02994370461
    y: -0.41965508461
    z: -0.912104666233
  orientation: 
    x: -0.0499017843432
    y: -0.00276768344295
    z: 0.841648983601
    w: -0.537707280592
---
header: 
  seq: 112
  stamp: 
    secs: 1723698439
    nsecs: 125672636
  frame_id: "map"
pose: 
  position: 
    x: -1.02684509754
    y: -0.423246562481
    z: -0.911463677883
  orientation: 
    x: -0.0498510553427
    y: -0.0028437110893
    z: 0.841655558509
    w: -0.537701464327
---
header: 
  seq: 113
  stamp: 
    secs: 1723698439
    nsecs: 158183503
  frame_id: "map"
pose: 
  position: 
    x: -1.02387237549
    y: -0.426727563143
    z: -0.911149144173
  orientation: 
    x: -0.049628851889
    y: -0.00302362018053
    z: 0.841669804144
    w: -0.537698682635
---
header: 
  seq: 114
  stamp: 
    secs: 1723698439
    nsecs: 192148940
  frame_id: "map"
pose: 
  position: 
    x: -1.02032029629
    y: -0.430887669325
    z: -0.910808742046
  orientation: 
    x: -0.0495125292212
    y: -0.0030922115423
    z: 0.841661606582
    w: -0.537721715888
---
header: 
  seq: 115
  stamp: 
    secs: 1723698439
    nsecs: 224626655
  frame_id: "map"
pose: 
  position: 
    x: -1.01745259762
    y: -0.43408587575
    z: -0.909709393978
  orientation: 
    x: -0.0493906879506
    y: -0.0031935114927
    z: 0.841653767268
    w: -0.537744643774
---
header: 
  seq: 116
  stamp: 
    secs: 1723698439
    nsecs: 256521293
  frame_id: "map"
pose: 
  position: 
    x: -1.01486122608
    y: -0.437136262655
    z: -0.908871293068
  orientation: 
    x: -0.0494663678854
    y: -0.0031469866403
    z: 0.841640164373
    w: -0.537759342487
---
header: 
  seq: 117
  stamp: 
    secs: 1723698439
    nsecs: 291899510
  frame_id: "map"
pose: 
  position: 
    x: -1.0125130415
    y: -0.439985156059
    z: -0.908212721348
  orientation: 
    x: -0.0495677389586
    y: -0.00305425567104
    z: 0.841626856505
    w: -0.537771470243
---
header: 
  seq: 118
  stamp: 
    secs: 1723698439
    nsecs: 324792396
  frame_id: "map"
pose: 
  position: 
    x: -1.00934302807
    y: -0.444076806307
    z: -0.90746062994
  orientation: 
    x: -0.0497000089401
    y: -0.0028455102329
    z: 0.841622705041
    w: -0.537766686575
---
header: 
  seq: 119
  stamp: 
    secs: 1723698439
    nsecs: 356743866
  frame_id: "map"
pose: 
  position: 
    x: -1.00712764263
    y: -0.446933597326
    z: -0.907083451748
  orientation: 
    x: -0.0498122301926
    y: -0.00260531007488
    z: 0.841624612186
    w: -0.537754579893
---
header: 
  seq: 120
  stamp: 
    secs: 1723698439
    nsecs: 394632054
  frame_id: "map"
pose: 
  position: 
    x: -1.00425350666
    y: -0.450587242842
    z: -0.906872570515
  orientation: 
    x: -0.0498691310723
    y: -0.00246110726688
    z: 0.841630734015
    w: -0.537740365869
---
header: 
  seq: 121
  stamp: 
    secs: 1723698439
    nsecs: 425264314
  frame_id: "map"
pose: 
  position: 
    x: -1.00200307369
    y: -0.453827887774
    z: -0.906367719173
  orientation: 
    x: -0.0499156401196
    y: -0.0023341925693
    z: 0.841641207507
    w: -0.537720282895
---
header: 
  seq: 122
  stamp: 
    secs: 1723698439
    nsecs: 458344658
  frame_id: "map"
pose: 
  position: 
    x: -0.999795556068
    y: -0.456933021545
    z: -0.906014084816
  orientation: 
    x: -0.0498478390113
    y: -0.00237220639248
    z: 0.84165873006
    w: -0.537699135714
---
header: 
  seq: 123
  stamp: 
    secs: 1723698439
    nsecs: 494591456
  frame_id: "map"
pose: 
  position: 
    x: -0.996929347515
    y: -0.461072146893
    z: -0.905889689922
  orientation: 
    x: -0.0497785021771
    y: -0.00240147211041
    z: 0.841650132102
    w: -0.537718776145
---
header: 
  seq: 124
  stamp: 
    secs: 1723698439
    nsecs: 524695617
  frame_id: "map"
pose: 
  position: 
    x: -0.994860887527
    y: -0.463727325201
    z: -0.905202805996
  orientation: 
    x: -0.0496707959058
    y: -0.00262780595527
    z: 0.84164020652
    w: -0.53774311595
---
header: 
  seq: 125
  stamp: 
    secs: 1723698439
    nsecs: 557251125
  frame_id: "map"
pose: 
  position: 
    x: -0.992880165577
    y: -0.466139703989
    z: -0.904355287552
  orientation: 
    x: -0.0497195361019
    y: -0.0026508734523
    z: 0.841647455778
    w: -0.537727268735
---
header: 
  seq: 126
  stamp: 
    secs: 1723698439
    nsecs: 591648182
  frame_id: "map"
pose: 
  position: 
    x: -0.991090595722
    y: -0.468405306339
    z: -0.903596043587
  orientation: 
    x: -0.0497998890686
    y: -0.00254670224785
    z: 0.841648172274
    w: -0.537719218687
---
header: 
  seq: 127
  stamp: 
    secs: 1723698439
    nsecs: 624546860
  frame_id: "map"
pose: 
  position: 
    x: -0.988599717617
    y: -0.471793889999
    z: -0.902780473232
  orientation: 
    x: -0.050017930521
    y: -0.00220560253449
    z: 0.841682321758
    w: -0.537647052746
---
header: 
  seq: 128
  stamp: 
    secs: 1723698439
    nsecs: 656245752
  frame_id: "map"
pose: 
  position: 
    x: -0.986671864986
    y: -0.474478960037
    z: -0.90243345499
  orientation: 
    x: -0.0501814602932
    y: -0.0018477441805
    z: 0.841749693495
    w: -0.537527587504
---
header: 
  seq: 129
  stamp: 
    secs: 1723698439
    nsecs: 694718264
  frame_id: "map"
pose: 
  position: 
    x: -0.984330236912
    y: -0.477807939053
    z: -0.902238786221
  orientation: 
    x: -0.0502581175081
    y: -0.00169189303724
    z: 0.841803715218
    w: -0.53743639226
---
header: 
  seq: 130
  stamp: 
    secs: 1723698439
    nsecs: 726082178
  frame_id: "map"
pose: 
  position: 
    x: -0.982363283634
    y: -0.480479121208
    z: -0.902622938156
  orientation: 
    x: -0.0502180490261
    y: -0.00169150581307
    z: 0.841835293745
    w: -0.537390736687
---
header: 
  seq: 131
  stamp: 
    secs: 1723698439
    nsecs: 758327987
  frame_id: "map"
pose: 
  position: 
    x: -0.980414688587
    y: -0.483030498028
    z: -0.903015613556
  orientation: 
    x: -0.0501327833174
    y: -0.00183483407396
    z: 0.841834682615
    w: -0.537399102836
---
header: 
  seq: 132
  stamp: 
    secs: 1723698439
    nsecs: 792832437
  frame_id: "map"
pose: 
  position: 
    x: -0.977825343609
    y: -0.486282557249
    z: -0.903634011745
  orientation: 
    x: -0.0500835399932
    y: -0.00188121668075
    z: 0.841836473856
    w: -0.537400683343
---
header: 
  seq: 133
  stamp: 
    secs: 1723698439
    nsecs: 826774483
  frame_id: "map"
pose: 
  position: 
    x: -0.975654602051
    y: -0.488944709301
    z: -0.904578328133
  orientation: 
    x: -0.04992461213
    y: -0.00202333321975
    z: 0.841838349391
    w: -0.537411957625
---
header: 
  seq: 134
  stamp: 
    secs: 1723698439
    nsecs: 859507527
  frame_id: "map"
pose: 
  position: 
    x: -0.973724424839
    y: -0.491356551647
    z: -0.905354142189
  orientation: 
    x: -0.0498683776974
    y: -0.00212334242291
    z: 0.841831152817
    w: -0.537428089331
---
header: 
  seq: 135
  stamp: 
    secs: 1723698439
    nsecs: 891203508
  frame_id: "map"
pose: 
  position: 
    x: -0.971926927567
    y: -0.493626058102
    z: -0.906111657619
  orientation: 
    x: -0.0498567899482
    y: -0.00214469770422
    z: 0.841849549916
    w: -0.537400251338
---
header: 
  seq: 136
  stamp: 
    secs: 1723698439
    nsecs: 925635477
  frame_id: "map"
pose: 
  position: 
    x: -0.969406604767
    y: -0.496388405561
    z: -0.907277107239
  orientation: 
    x: -0.0498698554713
    y: -0.00212169606164
    z: 0.841850761638
    w: -0.537397269448
---
header: 
  seq: 137
  stamp: 
    secs: 1723698439
    nsecs: 958293097
  frame_id: "map"
pose: 
  position: 
    x: -0.967551589012
    y: -0.498318016529
    z: -0.908261120319
  orientation: 
    x: -0.0499149605017
    y: -0.00190448964366
    z: 0.841868421168
    w: -0.537366291515
---
header: 
  seq: 138
  stamp: 
    secs: 1723698439
    nsecs: 992713483
  frame_id: "map"
pose: 
  position: 
    x: -0.96517264843
    y: -0.500859200954
    z: -0.909624636173
  orientation: 
    x: -0.0499214774582
    y: -0.00180522327871
    z: 0.841861477474
    w: -0.537376944131
---
header: 
  seq: 139
  stamp: 
    secs: 1723698440
    nsecs:  24690202
  frame_id: "map"
pose: 
  position: 
    x: -0.963550925255
    y: -0.5026730299
    z: -0.909791231155
  orientation: 
    x: -0.049977980577
    y: -0.00173910541011
    z: 0.841868105066
    w: -0.5373614657
---
header: 
  seq: 140
  stamp: 
    secs: 1723698440
    nsecs:  57243406
  frame_id: "map"
pose: 
  position: 
    x: -0.962077200413
    y: -0.504289269447
    z: -0.909919261932
  orientation: 
    x: -0.0499402749526
    y: -0.00176253905788
    z: 0.841870033285
    w: -0.537361897706
---
header: 
  seq: 141
  stamp: 
    secs: 1723698440
    nsecs:  92521078
  frame_id: "map"
pose: 
  position: 
    x: -0.960642337799
    y: -0.505867242813
    z: -0.910112142563
  orientation: 
    x: -0.0499188169384
    y: -0.00177932930865
    z: 0.84185264771
    w: -0.537390915811
---
header: 
  seq: 142
  stamp: 
    secs: 1723698440
    nsecs: 124613959
  frame_id: "map"
pose: 
  position: 
    x: -0.958670556545
    y: -0.507917582989
    z: -0.909041106701
  orientation: 
    x: -0.0498554438833
    y: -0.00180129308508
    z: 0.841866988175
    w: -0.537374299416
---
header: 
  seq: 143
  stamp: 
    secs: 1723698440
    nsecs: 157409405
  frame_id: "map"
pose: 
  position: 
    x: -0.957281529903
    y: -0.50940823555
    z: -0.908170044422
  orientation: 
    x: -0.0498423019691
    y: -0.00179952555162
    z: 0.841846884128
    w: -0.537407216104
---
header: 
  seq: 144
  stamp: 
    secs: 1723698440
    nsecs: 194020911
  frame_id: "map"
pose: 
  position: 
    x: -0.955378472805
    y: -0.511385560036
    z: -0.90738683939
  orientation: 
    x: -0.0498750289969
    y: -0.00180192265363
    z: 0.841844976983
    w: -0.537407100201
---
header: 
  seq: 145
  stamp: 
    secs: 1723698440
    nsecs: 225254361
  frame_id: "map"
pose: 
  position: 
    x: -0.954519271851
    y: -0.512694716454
    z: -0.906530022621
  orientation: 
    x: -0.0498647425317
    y: -0.00172051338156
    z: 0.841851425451
    w: -0.537398291509
---
header: 
  seq: 146
  stamp: 
    secs: 1723698440
    nsecs: 258402194
  frame_id: "map"
pose: 
  position: 
    x: -0.953685879707
    y: -0.514005839825
    z: -0.905895411968
  orientation: 
    x: -0.0498908656753
    y: -0.0016586233687
    z: 0.841829740897
    w: -0.537429922719
---
header: 
  seq: 147
  stamp: 
    secs: 1723698440
    nsecs: 293099446
  frame_id: "map"
pose: 
  position: 
    x: -0.952549695969
    y: -0.515791714191
    z: -0.905114471912
  orientation: 
    x: -0.0498978725888
    y: -0.00170375737509
    z: 0.841823229209
    w: -0.537439384687
---
header: 
  seq: 148
  stamp: 
    secs: 1723698440
    nsecs: 324733091
  frame_id: "map"
pose: 
  position: 
    x: -0.951310396194
    y: -0.516806423664
    z: -0.905263483524
  orientation: 
    x: -0.0498774234648
    y: -0.00179186272773
    z: 0.841817486701
    w: -0.537449847642
---
header: 
  seq: 149
  stamp: 
    secs: 1723698440
    nsecs: 360394991
  frame_id: "map"
pose: 
  position: 
    x: -0.950103223324
    y: -0.51776611805
    z: -0.905494511127
  orientation: 
    x: -0.0498714149047
    y: -0.00180856605063
    z: 0.841790101786
    w: -0.537493416946
---
header: 
  seq: 150
  stamp: 
    secs: 1723698440
    nsecs: 391545912
  frame_id: "map"
pose: 
  position: 
    x: -0.948802947998
    y: -0.518775165081
    z: -0.905830383301
  orientation: 
    x: -0.0498649796077
    y: -0.00176650612999
    z: 0.841791871954
    w: -0.53749122531
---
header: 
  seq: 151
  stamp: 
    secs: 1723698440
    nsecs: 424598288
  frame_id: "map"
pose: 
  position: 
    x: -0.947254955769
    y: -0.519833564758
    z: -0.906246721745
  orientation: 
    x: -0.0498289282472
    y: -0.001739621709
    z: 0.841802082028
    w: -0.537478655013
---
header: 
  seq: 152
  stamp: 
    secs: 1723698440
    nsecs: 456320478
  frame_id: "map"
pose: 
  position: 
    x: -0.946139812469
    y: -0.52060931921
    z: -0.906467139721
  orientation: 
    x: -0.0497587063292
    y: -0.00175240800917
    z: 0.841784422499
    w: -0.537512751813
---
header: 
  seq: 153
  stamp: 
    secs: 1723698440
    nsecs: 494073945
  frame_id: "map"
pose: 
  position: 
    x: -0.944722115993
    y: -0.52165979147
    z: -0.906889081001
  orientation: 
    x: -0.0497539569062
    y: -0.00174678930742
    z: 0.841782768235
    w: -0.53751583907
---
header: 
  seq: 154
  stamp: 
    secs: 1723698440
    nsecs: 525344803
  frame_id: "map"
pose: 
  position: 
    x: -0.94387447834
    y: -0.522478699684
    z: -0.906622588634
  orientation: 
    x: -0.0497718298042
    y: -0.00172477021326
    z: 0.84177310607
    w: -0.537529463039
---
header: 
  seq: 155
  stamp: 
    secs: 1723698440
    nsecs: 558293274
  frame_id: "map"
pose: 
  position: 
    x: -0.942906558514
    y: -0.523300468922
    z: -0.906351387501
  orientation: 
    x: -0.0498384165565
    y: -0.00158171854105
    z: 0.841771040874
    w: -0.537526892081
---
header: 
  seq: 156
  stamp: 
    secs: 1723698440
    nsecs: 592574043
  frame_id: "map"
pose: 
  position: 
    x: -0.942014336586
    y: -0.523964762688
    z: -0.906130671501
  orientation: 
    x: -0.0498432660782
    y: -0.00151302708051
    z: 0.841775729711
    w: -0.537519337258
---
header: 
  seq: 157
  stamp: 
    secs: 1723698440
    nsecs: 624729292
  frame_id: "map"
pose: 
  position: 
    x: -0.940657436848
    y: -0.524914979935
    z: -0.90564006567
  orientation: 
    x: -0.0498475755935
    y: -0.00138878343946
    z: 0.841784980944
    w: -0.537504775522
---
header: 
  seq: 158
  stamp: 
    secs: 1723698440
    nsecs: 657240960
  frame_id: "map"
pose: 
  position: 
    x: -0.939598798752
    y: -0.525672614574
    z: -0.905125916004
  orientation: 
    x: -0.0498317415493
    y: -0.00135585357988
    z: 0.841793831782
    w: -0.537492468642
---
header: 
  seq: 159
  stamp: 
    secs: 1723698440
    nsecs: 692409255
  frame_id: "map"
pose: 
  position: 
    x: -0.938553988934
    y: -0.526468038559
    z: -0.904641389847
  orientation: 
    x: -0.0498253510334
    y: -0.0013791976656
    z: 0.841782441597
    w: -0.537510855205
---
header: 
  seq: 160
  stamp: 
    secs: 1723698440
    nsecs: 724992892
  frame_id: "map"
pose: 
  position: 
    x: -0.937482178211
    y: -0.527690649033
    z: -0.90420550108
  orientation: 
    x: -0.0497965779068
    y: -0.00142200042444
    z: 0.841791029017
    w: -0.537499907561
---
header: 
  seq: 161
  stamp: 
    secs: 1723698440
    nsecs: 756265606
  frame_id: "map"
pose: 
  position: 
    x: -0.936838746071
    y: -0.528511583805
    z: -0.904052495956
  orientation: 
    x: -0.0498089348359
    y: -0.00145925560435
    z: 0.841802345446
    w: -0.537480920406
---
header: 
  seq: 162
  stamp: 
    secs: 1723698440
    nsecs: 789506399
  frame_id: "map"
pose: 
  position: 
    x: -0.936186075211
    y: -0.529289364815
    z: -0.904053628445
  orientation: 
    x: -0.0498327267319
    y: -0.00144552100009
    z: 0.841819815315
    w: -0.537451565126
---
header: 
  seq: 163
  stamp: 
    secs: 1723698440
    nsecs: 825485069
  frame_id: "map"
pose: 
  position: 
    x: -0.935333311558
    y: -0.530172526836
    z: -0.904783189297
  orientation: 
    x: -0.0498373286409
    y: -0.00136915354477
    z: 0.841819551897
    w: -0.53745174425
---
header: 
  seq: 164
  stamp: 
    secs: 1723698440
    nsecs: 858299171
  frame_id: "map"
pose: 
  position: 
    x: -0.934668242931
    y: -0.530790090561
    z: -0.905495166779
  orientation: 
    x: -0.0498097672362
    y: -0.00135642256234
    z: 0.841848685906
    w: -0.537408617487
---
header: 
  seq: 165
  stamp: 
    secs: 1723698440
    nsecs: 892596196
  frame_id: "map"
pose: 
  position: 
    x: -0.93393188715
    y: -0.531495392323
    z: -0.906288385391
  orientation: 
    x: -0.0498150382264
    y: -0.00136580287031
    z: 0.841840825519
    w: -0.537420355384
---
header: 
  seq: 166
  stamp: 
    secs: 1723698440
    nsecs: 924820982
  frame_id: "map"
pose: 
  position: 
    x: -0.933106601238
    y: -0.532230198383
    z: -0.907549679279
  orientation: 
    x: -0.0498447491205
    y: -0.00143306660636
    z: 0.841838423148
    w: -0.537421156175
---
header: 
  seq: 167
  stamp: 
    secs: 1723698440
    nsecs: 957351369
  frame_id: "map"
pose: 
  position: 
    x: -0.932490408421
    y: -0.532747864723
    z: -0.908539831638
  orientation: 
    x: -0.0498477836935
    y: -0.00145042057123
    z: 0.841859443889
    w: -0.537387912848
---
header: 
  seq: 168
  stamp: 
    secs: 1723698440
    nsecs: 991606602
  frame_id: "map"
pose: 
  position: 
    x: -0.931902527809
    y: -0.533244252205
    z: -0.909156560898
  orientation: 
    x: -0.0498708116779
    y: -0.00144535768105
    z: 0.8418572944
    w: -0.5373892194
---
header: 
  seq: 169
  stamp: 
    secs: 1723698441
    nsecs:  24628130
  frame_id: "map"
pose: 
  position: 
    x: -0.931343853474
    y: -0.533696472645
    z: -0.90866035223
  orientation: 
    x: -0.0499204922756
    y: -0.00132788387754
    z: 0.841873015174
    w: -0.537360264515
---
header: 
  seq: 170
  stamp: 
    secs: 1723698441
    nsecs:  56366705
  frame_id: "map"
pose: 
  position: 
    x: -0.930884599686
    y: -0.534045696259
    z: -0.908030211926
  orientation: 
    x: -0.0499175261911
    y: -0.00120256022349
    z: 0.841888978293
    w: -0.537335787733
---
header: 
  seq: 171
  stamp: 
    secs: 1723698441
    nsecs:  95833402
  frame_id: "map"
pose: 
  position: 
    x: -0.930307090282
    y: -0.534446179867
    z: -0.907345294952
  orientation: 
    x: -0.0499169940872
    y: -0.00118162904485
    z: 0.841893340492
    w: -0.537329149604
---
header: 
  seq: 172
  stamp: 
    secs: 1723698441
    nsecs: 125340248
  frame_id: "map"
pose: 
  position: 
    x: -0.930136024952
    y: -0.535095572472
    z: -0.907145321369
  orientation: 
    x: -0.049889767223
    y: -0.00118114435609
    z: 0.841911705981
    w: -0.537302860508
---
header: 
  seq: 173
  stamp: 
    secs: 1723698441
    nsecs: 158518481
  frame_id: "map"
pose: 
  position: 
    x: -0.92993158102
    y: -0.535771906376
    z: -0.906950056553
  orientation: 
    x: -0.0498626141159
    y: -0.00122701066399
    z: 0.841910178158
    w: -0.537307675785
---
header: 
  seq: 174
  stamp: 
    secs: 1723698441
    nsecs: 192760019
  frame_id: "map"
pose: 
  position: 
    x: -0.929722011089
    y: -0.536389350891
    z: -0.906637728214
  orientation: 
    x: -0.0499144942522
    y: -0.0012382928485
    z: 0.841911495247
    w: -0.537300711018
---
header: 
  seq: 175
  stamp: 
    secs: 1723698441
    nsecs: 224748355
  frame_id: "map"
pose: 
  position: 
    x: -0.929369449615
    y: -0.53718495369
    z: -0.906449794769
  orientation: 
    x: -0.0499042657389
    y: -0.00115638835095
    z: 0.841919376707
    w: -0.53728945781
---
header: 
  seq: 176
  stamp: 
    secs: 1723698441
    nsecs: 257561850
  frame_id: "map"
pose: 
  position: 
    x: -0.92900788784
    y: -0.537824571133
    z: -0.90637922287
  orientation: 
    x: -0.049923561093
    y: -0.0011142335999
    z: 0.841909103413
    w: -0.537304030083
---
header: 
  seq: 177
  stamp: 
    secs: 1723698441
    nsecs: 291662170
  frame_id: "map"
pose: 
  position: 
    x: -0.928681731224
    y: -0.538393735886
    z: -0.906331956387
  orientation: 
    x: -0.0499332943808
    y: -0.00108894812498
    z: 0.841920915067
    w: -0.537284631996
---
header: 
  seq: 178
  stamp: 
    secs: 1723698441
    nsecs: 324611474
  frame_id: "map"
pose: 
  position: 
    x: -0.928375959396
    y: -0.539046525955
    z: -0.906278371811
  orientation: 
    x: -0.0499815894009
    y: -0.00108713581049
    z: 0.841929502488
    w: -0.537266687975
---
header: 
  seq: 179
  stamp: 
    secs: 1723698441
    nsecs: 356375681
  frame_id: "map"
pose: 
  position: 
    x: -0.928148686886
    y: -0.539489150047
    z: -0.906111657619
  orientation: 
    x: -0.0499521709006
    y: -0.00110399454989
    z: 0.841926615429
    w: -0.537273874012
---
header: 
  seq: 180
  stamp: 
    secs: 1723698441
    nsecs: 394589504
  frame_id: "map"
pose: 
  position: 
    x: -0.927843272686
    y: -0.540072143078
    z: -0.905864238739
  orientation: 
    x: -0.0499601287524
    y: -0.00111549800536
    z: 0.841926499525
    w: -0.537273315567
---
header: 
  seq: 181
  stamp: 
    secs: 1723698441
    nsecs: 425325287
  frame_id: "map"
pose: 
  position: 
    x: -0.927425563335
    y: -0.54034781456
    z: -0.905848503113
  orientation: 
    x: -0.0499545284899
    y: -0.00106908905679
    z: 0.841928280229
    w: -0.537271113394
---
header: 
  seq: 182
  stamp: 
    secs: 1723698441
    nsecs: 458337824
  frame_id: "map"
pose: 
  position: 
    x: -0.927028775215
    y: -0.540527224541
    z: -0.905856668949
  orientation: 
    x: -0.0499018343926
    y: -0.000976750580062
    z: 0.841923833737
    w: -0.537283230613
---
header: 
  seq: 183
  stamp: 
    secs: 1723698441
    nsecs: 494641937
  frame_id: "map"
pose: 
  position: 
    x: -0.926662445068
    y: -0.540757238865
    z: -0.905949473381
  orientation: 
    x: -0.0498856631736
    y: -0.000976015644391
    z: 0.841918849872
    w: -0.537292429163
---
header: 
  seq: 184
  stamp: 
    secs: 1723698441
    nsecs: 526326431
  frame_id: "map"
pose: 
  position: 
    x: -0.926015377045
    y: -0.54105091095
    z: -0.90537917614
  orientation: 
    x: -0.049832018138
    y: -0.00102865969236
    z: 0.841899378028
    w: -0.537327748222
---
header: 
  seq: 185
  stamp: 
    secs: 1723698441
    nsecs: 557391753
  frame_id: "map"
pose: 
  position: 
    x: -0.925403058529
    y: -0.541199803352
    z: -0.90468198061
  orientation: 
    x: -0.0498917955401
    y: -0.00104266561695
    z: 0.841891559787
    w: -0.537334554938
---
header: 
  seq: 186
  stamp: 
    secs: 1723698441
    nsecs: 591736843
  frame_id: "map"
pose: 
  position: 
    x: -0.924791276455
    y: -0.541280865669
    z: -0.904114544392
  orientation: 
    x: -0.0499870816621
    y: -0.000932722928436
    z: 0.84188975801
    w: -0.537328770283
---
header: 
  seq: 187
  stamp: 
    secs: 1723698441
    nsecs: 624633314
  frame_id: "map"
pose: 
  position: 
    x: -0.924309253693
    y: -0.541386544704
    z: -0.904035627842
  orientation: 
    x: -0.0500499752967
    y: -0.000744653153669
    z: 0.841884489654
    w: -0.537331425534
---
header: 
  seq: 188
  stamp: 
    secs: 1723698441
    nsecs: 656314544
  frame_id: "map"
pose: 
  position: 
    x: -0.924050331116
    y: -0.541473150253
    z: -0.904071390629
  orientation: 
    x: -0.05006754263
    y: -0.000710564255757
    z: 0.841890284845
    w: -0.537320657014
---
header: 
  seq: 189
  stamp: 
    secs: 1723698441
    nsecs: 694063692
  frame_id: "map"
pose: 
  position: 
    x: -0.923729121685
    y: -0.541621744633
    z: -0.904097378254
  orientation: 
    x: -0.050049461632
    y: -0.000730915915232
    z: 0.841910631236
    w: -0.537290448261
---
header: 
  seq: 190
  stamp: 
    secs: 1723698441
    nsecs: 725373176
  frame_id: "map"
pose: 
  position: 
    x: -0.923205673695
    y: -0.54181343317
    z: -0.903564274311
  orientation: 
    x: -0.0500205278205
    y: -0.000809609349758
    z: 0.841904994095
    w: -0.53730198596
---
header: 
  seq: 191
  stamp: 
    secs: 1723698441
    nsecs: 758372432
  frame_id: "map"
pose: 
  position: 
    x: -0.922782421112
    y: -0.541943073273
    z: -0.903228104115
  orientation: 
    x: -0.0500578751967
    y: -0.000799673230221
    z: 0.84189369874
    w: -0.537316063008
---
header: 
  seq: 192
  stamp: 
    secs: 1723698441
    nsecs: 792980884
  frame_id: "map"
pose: 
  position: 
    x: -0.922318816185
    y: -0.542066216469
    z: -0.902855575085
  orientation: 
    x: -0.0500625982779
    y: -0.00080074534068
    z: 0.841886091234
    w: -0.537327548024
---
header: 
  seq: 193
  stamp: 
    secs: 1723698441
    nsecs: 825092742
  frame_id: "map"
pose: 
  position: 
    x: -0.921940982342
    y: -0.542136609554
    z: -0.902854204178
  orientation: 
    x: -0.0500239206418
    y: -0.000788815148374
    z: 0.841874005625
    w: -0.537350086051
---
header: 
  seq: 194
  stamp: 
    secs: 1723698441
    nsecs: 857500921
  frame_id: "map"
pose: 
  position: 
    x: -0.921600043774
    y: -0.542181789875
    z: -0.902811467648
  orientation: 
    x: -0.0499881326991
    y: -0.000834649846129
    z: 0.841899810033
    w: -0.537312986288
---
header: 
  seq: 195
  stamp: 
    secs: 1723698441
    nsecs: 894551152
  frame_id: "map"
pose: 
  position: 
    x: -0.921276926994
    y: -0.542215526104
    z: -0.902797460556
  orientation: 
    x: -0.0499410046199
    y: -0.000847654783073
    z: 0.841909219317
    w: -0.53730256548
---
header: 
  seq: 196
  stamp: 
    secs: 1723698441
    nsecs: 924862292
  frame_id: "map"
pose: 
  position: 
    x: -0.920484662056
    y: -0.542164087296
    z: -0.902807235718
  orientation: 
    x: -0.0499274728474
    y: -0.000798008429705
    z: 0.841900958535
    w: -0.537316811114
---
header: 
  seq: 197
  stamp: 
    secs: 1723698441
    nsecs: 956264928
  frame_id: "map"
pose: 
  position: 
    x: -0.919853627682
    y: -0.542161822319
    z: -0.903023958206
  orientation: 
    x: -0.0499409150579
    y: -0.000797932038542
    z: 0.841921030971
    w: -0.537284263211
---
header: 
  seq: 198
  stamp: 
    secs: 1723698441
    nsecs: 994039356
  frame_id: "map"
pose: 
  position: 
    x: -0.919289290905
    y: -0.542137205601
    z: -0.903296411037
  orientation: 
    x: -0.0499285238844
    y: -0.000808985049564
    z: 0.841946824843
    w: -0.537244982348
---
header: 
  seq: 199
  stamp: 
    secs: 1723698442
    nsecs:  25371016
  frame_id: "map"
pose: 
  position: 
    x: -0.918929040432
    y: -0.542431116104
    z: -0.903462827206
  orientation: 
    x: -0.0499394241131
    y: -0.000828167133993
    z: 0.841950143907
    w: -0.537238797298
---
header: 
  seq: 200
  stamp: 
    secs: 1723698442
    nsecs:  58342081
  frame_id: "map"
pose: 
  position: 
    x: -0.918707430363
    y: -0.542733490467
    z: -0.903620302677
  orientation: 
    x: -0.0499377856544
    y: -0.000809011391345
    z: 0.841966096489
    w: -0.53721382529
---
header: 
  seq: 201
  stamp: 
    secs: 1723698442
    nsecs:  93647947
  frame_id: "map"
pose: 
  position: 
    x: -0.918456196785
    y: -0.543030142784
    z: -0.903798818588
  orientation: 
    x: -0.0499646885146
    y: -0.000814150672685
    z: 0.841969647361
    w: -0.537205722558
---
header: 
  seq: 202
  stamp: 
    secs: 1723698442
    nsecs: 124734582
  frame_id: "map"
pose: 
  position: 
    x: -0.917983472347
    y: -0.543456435204
    z: -0.903882682323
  orientation: 
    x: -0.0500243447445
    y: -0.000804175040478
    z: 0.841985631553
    w: -0.53717523985
---
header: 
  seq: 203
  stamp: 
    secs: 1723698442
    nsecs: 157304907
  frame_id: "map"
pose: 
  position: 
    x: -0.91761636734
    y: -0.543738365173
    z: -0.90385812521
  orientation: 
    x: -0.0500353529745
    y: -0.000795063418666
    z: 0.841988508076
    w: -0.537169750223
---
header: 
  seq: 204
  stamp: 
    secs: 1723698442
    nsecs: 191627566
  frame_id: "map"
pose: 
  position: 
    x: -0.91723960638
    y: -0.543974995613
    z: -0.903723537922
  orientation: 
    x: -0.0500266996997
    y: -0.000760126315428
    z: 0.841986400733
    w: -0.537173796321
---
header: 
  seq: 205
  stamp: 
    secs: 1723698442
    nsecs: 224764328
  frame_id: "map"
pose: 
  position: 
    x: -0.916813492775
    y: -0.544472813606
    z: -0.903254687786
  orientation: 
    x: -0.0500187708238
    y: -0.000750616932733
    z: 0.842003596647
    w: -0.537147665275
---
header: 
